[{"name": "Minimini Cbcc", "type": "CBCC", "school_type": "Unknown", "lat": -15.733497605696, "lon": 35.1550787126332, "district": "Chiradzulu", "constituency": "Chiradzulu Masanjala", "ward": "Mombezi"}, {"name": "Chiwala Cbcc", "type": "CBCC", "school_type": "Unknown", "lat": -15.7302026840447, "lon": 35.1596350319085, "district": "Chiradzulu", "constituency": "Chiradzulu Masanjala", "ward": "Mombezi"}, {"name": "Chingoli CBcc", "type": "CBCC", "school_type": "Unknown", "lat": -15.7556713470499, "lon": 35.1887867044547, "district": "Chiradzulu", "constituency": "Chiradzulu Masanjala", "ward": "Mombezi"}, {"name": "Chimwemwe CBCC", "type": "CBCC", "school_type": "Unknown", "lat": -15.7598352286875, "lon": 35.2009140607137, "district": "Chiradzulu", "constituency": "Chiradzulu Masanjala", "ward": "Mombezi"}, {"name": "Taona Cbcc", "type": "CBCC", "school_type": "Unknown", "lat": -15.7364814802325, "lon": 35.218596356314, "district": "Chiradzulu", "constituency": "Chiradzulu Masanjala", "ward": "Mombezi"}, {"name": "Kachere Cbcc", "type": "CBCC", "school_type": "Unknown", "lat": -15.7299770384177, "lon": 35.2219694010148, "district": "Chiradzulu", "constituency": "Chiradzulu Masanjala", "ward": "Mwanje"}, {"name": "Maiwa Cbcc", "type": "CBCC", "school_type": "Unknown", "lat": -15.7424308756636, "lon": 35.2088897766639, "district": "Chiradzulu", "constituency": "Chiradzulu Masanjala", "ward": "Mombezi"}, {"name": "Chisomo", "type": "CBCC", "school_type": "Unknown", "lat": -15.7244704683709, "lon": 35.208647624512, "district": "Chiradzulu", "constituency": "Chiradzulu Masanjala", "ward": "Mombezi"}, {"name": "Tadala Cbcc", "type": "CBCC", "school_type": "Unknown", "lat": -15.719884222012, "lon": 35.2190101711216, "district": "Chiradzulu", "constituency": "Chiradzulu Masanjala", "ward": "Mwanje"}, {"name": "Rivers Of Healing", "type": "CBCC", "school_type": "Unknown", "lat": -15.736028690398, "lon": 35.2092955454553, "district": "Chiradzulu", "constituency": "Chiradzulu Masanjala", "ward": "Mombezi"}, {"name": "Mwayi", "type": "CBCC", "school_type": "Unknown", "lat": -15.737512452801, "lon": 35.19761234481, "district": "Chiradzulu", "constituency": "Chiradzulu Masanjala", "ward": "Mombezi"}, {"name": "Nyungwe CBCC", "type": "CBCC", "school_type": "Unknown", "lat": -15.5697398658559, "lon": 35.1946748230512, "district": "Chiradzulu", "constituency": "Chiradzulu Nyungwe", "ward": "Mbulumbudzi"}, {"name": "Namaka", "type": "CBCC", "school_type": "Unknown", "lat": -15.6074445124735, "lon": 35.1939388917819, "district": "Chiradzulu", "constituency": "Chiradzulu Nyungwe", "ward": "Mbulumbudzi"}, {"name": "Mkwera", "type": "CBCC", "school_type": "Unknown", "lat": -15.5979265253216, "lon": 35.1955058888259, "district": "Chiradzulu", "constituency": "Chiradzulu Nyungwe", "ward": "Mbulumbudzi"}, {"name": "Timvane", "type": "CBCC", "school_type": "Unknown", "lat": -15.5786954253869, "lon": 35.2052440685056, "district": "Chiradzulu", "constituency": "Chiradzulu Nyungwe", "ward": "Mbulumbudzi"}, {"name": "Tikondwere", "type": "CBCC", "school_type": "Unknown", "lat": -15.5894514143214, "lon": 35.2126327158408, "district": "Chiradzulu", "constituency": "Chiradzulu Nyungwe", "ward": "Mbulumbudzi"}, {"name": "Thundu", "type": "CBCC", "school_type": "Unknown", "lat": -15.9509022131932, "lon": 35.2776823186011, "district": "Chiradzulu", "constituency": "Chiradzulu Midima", "ward": "Sakata"}, {"name": "Madalitso", "type": "CBCC", "school_type": "Unknown", "lat": -15.941239139722, "lon": 35.2969619536826, "district": "Chiradzulu", "constituency": "Chiradzulu Midima", "ward": "Sakata"}, {"name": "Chatha CBCC", "type": "CBCC", "school_type": "Unknown", "lat": -15.9499646191551, "lon": 35.3047059941657, "district": "Chiradzulu", "constituency": "Chiradzulu Midima", "ward": "Sakata"}, {"name": "M'gwirizano", "type": "CBCC", "school_type": "Unknown", "lat": -15.9401529266559, "lon": 35.316455495177, "district": "Chiradzulu", "constituency": "Chiradzulu Midima", "ward": "Sakata"}, {"name": "Chimwankhunda", "type": "CBCC", "school_type": "Unknown", "lat": -15.940146811465, "lon": 35.3164562494381, "district": "Chiradzulu", "constituency": "Chiradzulu Midima", "ward": "Sakata"}, {"name": "Mitawa", "type": "CBCC", "school_type": "Unknown", "lat": -15.8871539044056, "lon": 35.3106889970938, "district": "Chiradzulu", "constituency": "Chiradzulu Midima", "ward": "Mitumbira"}, {"name": "Mwayiwathu", "type": "CBCC", "school_type": "Unknown", "lat": -15.8924417139126, "lon": 35.3128302380172, "district": "Chiradzulu", "constituency": "Chiradzulu Midima", "ward": "Mitumbira"}, {"name": "Kanje", "type": "CBCC", "school_type": "Unknown", "lat": -15.8964755824882, "lon": 35.3121036103035, "district": "Chiradzulu", "constituency": "Chiradzulu Midima", "ward": "Sakata"}, {"name": "TALANDIRA", "type": "CBCC", "school_type": "Unknown", "lat": -15.9021487111601, "lon": 35.3100458535095, "district": "Chiradzulu", "constituency": "Chiradzulu Midima", "ward": "Sakata"}, {"name": "Tiwasunde", "type": "CBCC", "school_type": "Unknown", "lat": -15.882470259526, "lon": 35.3156894721567, "district": "Chiradzulu", "constituency": "Chiradzulu Midima", "ward": "Mitumbira"}, {"name": "Tikondane 2", "type": "CBCC", "school_type": "Unknown", "lat": -15.8812611773551, "lon": 35.2981166451757, "district": "Chiradzulu", "constituency": "Chiradzulu Midima", "ward": "Mitumbira"}, {"name": "TADALA", "type": "CBCC", "school_type": "Unknown", "lat": -15.8962949559225, "lon": 35.299237388721, "district": "Chiradzulu", "constituency": "Chiradzulu Midima", "ward": "Sakata"}, {"name": "TADALA 2", "type": "CBCC", "school_type": "Unknown", "lat": -15.876596561712, "lon": 35.2911251324171, "district": "Chiradzulu", "constituency": "Chiradzulu Midima", "ward": "Mitumbira"}, {"name": "Mpochela", "type": "CBCC", "school_type": "Unknown", "lat": -15.8512455822535, "lon": 35.2816540843726, "district": "Chiradzulu", "constituency": "Chiradzulu Midima", "ward": "Mitumbira"}, {"name": "Namitembe", "type": "CBCC", "school_type": "Unknown", "lat": -15.8503405854702, "lon": 35.2799298429878, "district": "Chiradzulu", "constituency": "Chiradzulu Midima", "ward": "Mitumbira"}, {"name": "Kachepa", "type": "CBCC", "school_type": "Unknown", "lat": -15.86906173716, "lon": 35.2732269193432, "district": "Chiradzulu", "constituency": "Chiradzulu Midima", "ward": "Mitumbira"}, {"name": "Muleso", "type": "CBCC", "school_type": "Unknown", "lat": -15.9146203110984, "lon": 35.2641684282828, "district": "Chiradzulu", "constituency": "Chiradzulu Midima", "ward": "Sakata"}, {"name": "SIZOCHEZA", "type": "CBCC", "school_type": "Unknown", "lat": -15.9271112731212, "lon": 35.2757942957182, "district": "Chiradzulu", "constituency": "Chiradzulu Midima", "ward": "Sakata"}, {"name": "Ntauchila", "type": "CBCC", "school_type": "Unknown", "lat": -15.9275514891066, "lon": 35.2638207474579, "district": "Chiradzulu", "constituency": "Chiradzulu Midima", "ward": "Sakata"}, {"name": "Mchocholo", "type": "CBCC", "school_type": "Unknown", "lat": -15.9134651202943, "lon": 35.2605105662738, "district": "Chiradzulu", "constituency": "Chiradzulu Midima", "ward": "Sakata"}, {"name": "Likalawe", "type": "CBCC", "school_type": "Unknown", "lat": -15.897354597392, "lon": 35.2499582530573, "district": "Chiradzulu", "constituency": "Chiradzulu Midima", "ward": "Sakata"}, {"name": "Chilungamo", "type": "CBCC", "school_type": "Unknown", "lat": -15.8849651408986, "lon": 35.2472843418249, "district": "Chiradzulu", "constituency": "Chiradzulu Midima", "ward": "Sakata"}, {"name": "Mombezi Sda", "type": "CBCC", "school_type": "Unknown", "lat": -15.8758668291889, "lon": 35.2490404337204, "district": "Chiradzulu", "constituency": "Chiradzulu Midima", "ward": "Sakata"}, {"name": "Chisowile", "type": "CBCC", "school_type": "Unknown", "lat": -15.8771293996071, "lon": 35.2587196882682, "district": "Chiradzulu", "constituency": "Chiradzulu Midima", "ward": "Sakata"}, {"name": "Matamando", "type": "CBCC", "school_type": "Unknown", "lat": -15.8897952054113, "lon": 35.258592619442, "district": "Chiradzulu", "constituency": "Chiradzulu Midima", "ward": "Sakata"}, {"name": "Masenjere", "type": "CBCC", "school_type": "Unknown", "lat": -15.9039809094131, "lon": 35.2782225326347, "district": "Chiradzulu", "constituency": "Chiradzulu Midima", "ward": "Sakata"}, {"name": "Nkuya", "type": "CBCC", "school_type": "Unknown", "lat": -15.6726987176645, "lon": 35.2219854114224, "district": "Chiradzulu", "constituency": "Chiradzulu Masanjala", "ward": "Mwanje"}, {"name": "Kadewere", "type": "CBCC", "school_type": "Unknown", "lat": -15.686256027503, "lon": 35.2325555776952, "district": "Chiradzulu", "constituency": "Chiradzulu Masanjala", "ward": "Mwanje"}, {"name": "Makaluka", "type": "CBCC", "school_type": "Unknown", "lat": -15.689339227673, "lon": 35.1977980038178, "district": "Chiradzulu", "constituency": "Chiradzulu Masanjala", "ward": "Mombezi"}, {"name": "Damu Cbcc", "type": "CBCC", "school_type": "Unknown", "lat": -15.673841341849, "lon": 35.2099760709564, "district": "Chiradzulu", "constituency": "Chiradzulu Masanjala", "ward": "Mwanje"}, {"name": "Dalitso", "type": "CBCC", "school_type": "Unknown", "lat": -15.6743695696919, "lon": 35.1932920614625, "district": "Chiradzulu", "constituency": "Chiradzulu Masanjala", "ward": "Mwanje"}, {"name": "Chikwiya", "type": "CBCC", "school_type": "Unknown", "lat": -15.7018446058288, "lon": 35.2341474693669, "district": "Chiradzulu", "constituency": "Chiradzulu Masanjala", "ward": "Mwanje"}, {"name": "Khogolo", "type": "CBCC", "school_type": "Unknown", "lat": -15.7101231631227, "lon": 35.2268853882835, "district": "Chiradzulu", "constituency": "Chiradzulu Masanjala", "ward": "Mwanje"}, {"name": "Chabwera", "type": "CBCC", "school_type": "Unknown", "lat": -15.6970596298645, "lon": 35.2415236266505, "district": "Chiradzulu", "constituency": "Chiradzulu Masanjala", "ward": "Mwanje"}, {"name": "Tikondane", "type": "CBCC", "school_type": "Unknown", "lat": -15.6994419368068, "lon": 35.2615351702708, "district": "Chiradzulu", "constituency": "Chiradzulu Thubwe", "ward": "Nanjati"}, {"name": "Salvation Army", "type": "CBCC", "school_type": "Unknown", "lat": -15.7070983030929, "lon": 35.2705961752491, "district": "Chiradzulu", "constituency": "Chiradzulu Thubwe", "ward": "Nanjati"}, {"name": "Chikwakwata", "type": "CBCC", "school_type": "Unknown", "lat": -15.7118073432057, "lon": 35.2367531509834, "district": "Chiradzulu", "constituency": "Chiradzulu Masanjala", "ward": "Mwanje"}, {"name": "Kheleng\"eza", "type": "CBCC", "school_type": "Unknown", "lat": -15.7227376749107, "lon": 35.2324601912165, "district": "Chiradzulu", "constituency": "Chiradzulu Masanjala", "ward": "Mwanje"}, {"name": "Balala", "type": "CBCC", "school_type": "Unknown", "lat": -15.7106192903184, "lon": 35.250794766056, "district": "Chiradzulu", "constituency": "Chiradzulu Thubwe", "ward": "Nanjati"}, {"name": "Chanje", "type": "CBCC", "school_type": "Unknown", "lat": -15.7210891266592, "lon": 35.2655449881669, "district": "Chiradzulu", "constituency": "Chiradzulu Thubwe", "ward": "Nanjati"}, {"name": "Namulu", "type": "CBCC", "school_type": "Unknown", "lat": -15.7353637537075, "lon": 35.2837765499464, "district": "Chiradzulu", "constituency": "Chiradzulu Thubwe", "ward": "Nanjati"}, {"name": "Talandila", "type": "CBCC", "school_type": "Unknown", "lat": -15.7373574727999, "lon": 35.2942833487275, "district": "Chiradzulu", "constituency": "Chiradzulu Thubwe", "ward": "Nanjati"}, {"name": "Mokowa", "type": "CBCC", "school_type": "Unknown", "lat": -15.7320125873983, "lon": 35.2963579536125, "district": "Chiradzulu", "constituency": "Chiradzulu Thubwe", "ward": "Nanjati"}, {"name": "Mmora", "type": "CBCC", "school_type": "Unknown", "lat": -15.7200407126235, "lon": 35.2924489699486, "district": "Chiradzulu", "constituency": "Chiradzulu Thubwe", "ward": "Nanjati"}, {"name": "Selemani", "type": "CBCC", "school_type": "Unknown", "lat": -15.7646242274413, "lon": 35.2276143622612, "district": "Chiradzulu", "constituency": "Chiradzulu Thubwe", "ward": "Nanjati"}, {"name": "Mtetemera", "type": "CBCC", "school_type": "Unknown", "lat": -15.744788196212, "lon": 35.23175418415, "district": "Chiradzulu", "constituency": "Chiradzulu Thubwe", "ward": "Nanjati"}, {"name": "Manjolo", "type": "CBCC", "school_type": "Unknown", "lat": -15.7339027025743, "lon": 35.2658286316892, "district": "Chiradzulu", "constituency": "Chiradzulu Thubwe", "ward": "Nanjati"}, {"name": "Chitawo", "type": "CBCC", "school_type": "Unknown", "lat": -15.7595582877038, "lon": 35.2436564018525, "district": "Chiradzulu", "constituency": "Chiradzulu Thubwe", "ward": "Nanjati"}, {"name": "Ngokwe", "type": "CBCC", "school_type": "Unknown", "lat": -15.7744766485451, "lon": 35.2523487709515, "district": "Chiradzulu", "constituency": "Chiradzulu Thubwe", "ward": "Nanjati"}, {"name": "Nsoni Cbcc", "type": "CBCC", "school_type": "Unknown", "lat": -15.7639176279298, "lon": 35.2643688402413, "district": "Chiradzulu", "constituency": "Chiradzulu Thubwe", "ward": "Nanjati"}, {"name": "Chitembere Cbc", "type": "CBCC", "school_type": "Unknown", "lat": -15.7594623941131, "lon": 35.2909287443365, "district": "Chiradzulu", "constituency": "Chiradzulu Thubwe", "ward": "Nanjati"}, {"name": "Chisomo sta Mp", "type": "CBCC", "school_type": "Unknown", "lat": -15.7642003537503, "lon": 35.2861832448867, "district": "Chiradzulu", "constituency": "Chiradzulu Thubwe", "ward": "Maera"}, {"name": "Tadala Mpunga", "type": "CBCC", "school_type": "Unknown", "lat": -15.7591723795091, "lon": 35.2765907440685, "district": "Chiradzulu", "constituency": "Chiradzulu Thubwe", "ward": "Nanjati"}, {"name": "Upile Cbcc", "type": "CBCC", "school_type": "Unknown", "lat": -15.670714053625, "lon": 35.2752132617558, "district": "Chiradzulu", "constituency": "Chiradzulu Masanjala", "ward": "Mwanje"}, {"name": "Mwayi Cbcc", "type": "CBCC", "school_type": "Unknown", "lat": -15.6859655133528, "lon": 35.2848869837637, "district": "Chiradzulu", "constituency": "Chiradzulu Masanjala", "ward": "Mwanje"}, {"name": "Talandila 1Cbc", "type": "CBCC", "school_type": "Unknown", "lat": -15.6864230823951, "lon": 35.3121592657365, "district": "Chiradzulu", "constituency": "Chiradzulu Masanjala", "ward": "Mwanje"}, {"name": "Mmera Mpoyamba", "type": "CBCC", "school_type": "Unknown", "lat": -15.6591445137913, "lon": 35.242284284752, "district": "Chiradzulu", "constituency": "Chiradzulu Masanjala", "ward": "Mwanje"}, {"name": "Talandila 2Cbc", "type": "CBCC", "school_type": "Unknown", "lat": -15.7100533387705, "lon": 35.2916887311025, "district": "Chiradzulu", "constituency": "Chiradzulu Thubwe", "ward": "Nanjati"}, {"name": "Talandila 3Cbc", "type": "CBCC", "school_type": "Unknown", "lat": -15.7021988278697, "lon": 35.2924653981272, "district": "Chiradzulu", "constituency": "Chiradzulu Thubwe", "ward": "Nanjati"}, {"name": "Umodzi 1 Cbcc", "type": "CBCC", "school_type": "Unknown", "lat": -15.702642981406, "lon": 35.2985755536411, "district": "Chiradzulu", "constituency": "Chiradzulu Thubwe", "ward": "Nanjati"}, {"name": "Mgwirizano 1 CBCC", "type": "CBCC", "school_type": "Unknown", "lat": -15.7042673987607, "lon": 35.3071023798034, "district": "Chiradzulu", "constituency": "Chiradzulu Thubwe", "ward": "Nanjati"}, {"name": "Chisangalalo", "type": "CBCC", "school_type": "Unknown", "lat": -15.7104566784109, "lon": 35.3083756754156, "district": "Chiradzulu", "constituency": "Chiradzulu Thubwe", "ward": "Nanjati"}, {"name": "Chisomo 2Cbcc", "type": "CBCC", "school_type": "Unknown", "lat": -15.6557082631465, "lon": 35.2664312071436, "district": "Chiradzulu", "constituency": "Chiradzulu Masanjala", "ward": "Mwanje"}, {"name": "Dalitso Cbcc", "type": "CBCC", "school_type": "Unknown", "lat": -15.6507023439816, "lon": 35.2425839379397, "district": "Chiradzulu", "constituency": "Chiradzulu Masanjala", "ward": "Mwanje"}, {"name": "Kachere Ngumba", "type": "CBCC", "school_type": "Unknown", "lat": -15.6722505432649, "lon": 35.2434385566754, "district": "Chiradzulu", "constituency": "Chiradzulu Masanjala", "ward": "Mwanje"}, {"name": "Namipingo Cbcc", "type": "CBCC", "school_type": "Unknown", "lat": -15.6488532147835, "lon": 35.2277011137349, "district": "Chiradzulu", "constituency": "Chiradzulu Masanjala", "ward": "Mwanje"}, {"name": "Chimwemwe Nkal", "type": "CBCC", "school_type": "Unknown", "lat": -15.6132004473466, "lon": 35.1543333944007, "district": "Chiradzulu", "constituency": "Chiradzulu Nyungwe", "ward": "Nkhande"}, {"name": "Umodzi Cbcc", "type": "CBCC", "school_type": "Unknown", "lat": -15.601780697681, "lon": 35.1272807176346, "district": "Chiradzulu", "constituency": "Chiradzulu Nyungwe", "ward": "Nkhande"}, {"name": "Sakata Cbcc", "type": "CBCC", "school_type": "Unknown", "lat": -15.5999574653696, "lon": 35.1557510247276, "district": "Chiradzulu", "constituency": "Chiradzulu Nyungwe", "ward": "Nkhande"}, {"name": "Sakata Fbo", "type": "CBCC", "school_type": "Unknown", "lat": -15.5925181067651, "lon": 35.1562021387564, "district": "Chiradzulu", "constituency": "Chiradzulu Nyungwe", "ward": "Nkhande"}, {"name": "Kachere Maoni", "type": "CBCC", "school_type": "Unknown", "lat": -15.6106500911112, "lon": 35.1721492974156, "district": "Chiradzulu", "constituency": "Chiradzulu Nyungwe", "ward": "Mbulumbudzi"}, {"name": "Bwemba Cbcc", "type": "CBCC", "school_type": "Unknown", "lat": -15.6029178641683, "lon": 35.1778743878646, "district": "Chiradzulu", "constituency": "Chiradzulu Nyungwe", "ward": "Mbulumbudzi"}, {"name": "Gonawambo Cbcc", "type": "CBCC", "school_type": "Unknown", "lat": -15.6220339737673, "lon": 35.1532867464902, "district": "Chiradzulu", "constituency": "Chiradzulu Nyungwe", "ward": "Nkhande"}, {"name": "Tilimbike Cbcc", "type": "CBCC", "school_type": "Unknown", "lat": -15.636403231827, "lon": 35.1534841401175, "district": "Chiradzulu", "constituency": "Chiradzulu Nyungwe", "ward": "Nkhande"}, {"name": "chimwemwe Ntam", "type": "CBCC", "school_type": "Unknown", "lat": -15.6371474602717, "lon": 35.1397343823036, "district": "Chiradzulu", "constituency": "Chiradzulu Nyungwe", "ward": "Nkhande"}, {"name": "Kesha Cbcc", "type": "CBCC", "school_type": "Unknown", "lat": -15.7766195705696, "lon": 35.1987070222939, "district": "Chiradzulu", "constituency": "Chiradzulu Thubwe", "ward": "Maera"}, {"name": "Kachere Namond", "type": "CBCC", "school_type": "Unknown", "lat": -15.7897022123469, "lon": 35.2130138411723, "district": "Chiradzulu", "constituency": "Chiradzulu Thubwe", "ward": "Maera"}, {"name": "Takondwa", "type": "CBCC", "school_type": "Unknown", "lat": -15.571626377222, "lon": 35.149064362444, "district": "Chiradzulu", "constituency": "Chiradzulu Nyungwe", "ward": "Nkhande"}, {"name": "Malile Cbcc", "type": "CBCC", "school_type": "Unknown", "lat": -15.7894498307416, "lon": 35.1793299057562, "district": "Chiradzulu", "constituency": "Chiradzulu Nguludi", "ward": "Malabvi"}, {"name": "Madalitso Pvt", "type": "CBCC", "school_type": "Unknown", "lat": -15.7927687305097, "lon": 35.1790470157962, "district": "Chiradzulu", "constituency": "Chiradzulu Nguludi", "ward": "Malabvi"}, {"name": "Milonga Cbcc", "type": "CBCC", "school_type": "Unknown", "lat": -15.8046944161473, "lon": 35.1713256074065, "district": "Chiradzulu", "constituency": "Chiradzulu Nguludi", "ward": "Chisombezi"}, {"name": "Takondwa Mpulu", "type": "CBCC", "school_type": "Unknown", "lat": -15.8384285579559, "lon": 35.1747180988365, "district": "Chiradzulu", "constituency": "Chiradzulu Nguludi", "ward": "Malabvi"}, {"name": "Mlambe Cbcc", "type": "CBCC", "school_type": "Unknown", "lat": -15.8488156650783, "lon": 35.184948966448, "district": "Chiradzulu", "constituency": "Chiradzulu Nguludi", "ward": "Malabvi"}, {"name": "M'mbawa Cbcc", "type": "CBCC", "school_type": "Unknown", "lat": -15.8532574831879, "lon": 35.1706164140276, "district": "Chiradzulu", "constituency": "Chiradzulu Nguludi", "ward": "Malabvi"}, {"name": "Mlambe Namala", "type": "CBCC", "school_type": "Unknown", "lat": -15.8545463738648, "lon": 35.1553488621956, "district": "Chiradzulu", "constituency": "Chiradzulu Nguludi", "ward": "Malabvi"}, {"name": "Nkhuku Cbcc", "type": "CBCC", "school_type": "Unknown", "lat": -15.8365082676357, "lon": 35.1475505899126, "district": "Chiradzulu", "constituency": "Chiradzulu Nguludi", "ward": "Malabvi"}, {"name": "Rpc Cbcc", "type": "CBCC", "school_type": "Unknown", "lat": -15.8302993692308, "lon": 35.1425693932739, "district": "Chiradzulu", "constituency": "Chiradzulu Nguludi", "ward": "Malabvi"}, {"name": "Jali Cbcc", "type": "CBCC", "school_type": "Unknown", "lat": -15.8277483337979, "lon": 35.1262155453291, "district": "Chiradzulu", "constituency": "Chiradzulu Nguludi", "ward": "Chisombezi"}, {"name": "Chisomo Cbcc", "type": "CBCC", "school_type": "Unknown", "lat": -15.8029236554332, "lon": 35.1248122469991, "district": "Chiradzulu", "constituency": "Chiradzulu Nguludi", "ward": "Chisombezi"}, {"name": "Madalitso Mtop", "type": "CBCC", "school_type": "Unknown", "lat": -15.8014163342105, "lon": 35.1581818611466, "district": "Chiradzulu", "constituency": "Chiradzulu Nguludi", "ward": "Chisombezi"}, {"name": "Tiyanjane Cbcc", "type": "CBCC", "school_type": "Unknown", "lat": -15.7708010174672, "lon": 35.1522428638179, "district": "Chiradzulu", "constituency": "Chiradzulu Nguludi", "ward": "Chisombezi"}, {"name": "Tigwirizan Cbc", "type": "CBCC", "school_type": "Unknown", "lat": -15.7610939345474, "lon": 35.1508994120869, "district": "Chiradzulu", "constituency": "Chiradzulu Nguludi", "ward": "Chisombezi"}, {"name": "Tikondane Cbcc", "type": "CBCC", "school_type": "Unknown", "lat": -15.7670550604268, "lon": 35.1396845931848, "district": "Chiradzulu", "constituency": "Chiradzulu Nguludi", "ward": "Chisombezi"}, {"name": "Tchoda Cbcc", "type": "CBCC", "school_type": "Unknown", "lat": -15.8091788176327, "lon": 35.1806127557189, "district": "Chiradzulu", "constituency": "Chiradzulu Nguludi", "ward": "Malabvi"}, {"name": "Chimwemwe Maon", "type": "CBCC", "school_type": "Unknown", "lat": -15.8198701001235, "lon": 35.1976927280577, "district": "Chiradzulu", "constituency": "Chiradzulu Nguludi", "ward": "Malabvi"}, {"name": "Tchoda Fbo", "type": "CBCC", "school_type": "Unknown", "lat": -15.8097150941032, "lon": 35.1975156183169, "district": "Chiradzulu", "constituency": "Chiradzulu Nguludi", "ward": "Malabvi"}, {"name": "Thundu Cbcc", "type": "CBCC", "school_type": "Unknown", "lat": -15.8027516596012, "lon": 35.2021082298438, "district": "Chiradzulu", "constituency": "Chiradzulu Nguludi", "ward": "Malabvi"}, {"name": "Madalitso Maone", "type": "CBCC", "school_type": "Unknown", "lat": -15.7983919791457, "lon": 35.2009877384235, "district": "Chiradzulu", "constituency": "Chiradzulu Nguludi", "ward": "Malabvi"}, {"name": "Kachere", "type": "CBCC", "school_type": "Unknown", "lat": -15.7984094975212, "lon": 35.2011464911177, "district": "Chiradzulu", "constituency": "Chiradzulu Nguludi", "ward": "Malabvi"}, {"name": "Kawawa", "type": "CBCC", "school_type": "Unknown", "lat": -15.6295241192748, "lon": 35.1309736999352, "district": "Chiradzulu", "constituency": "Chiradzulu Nyungwe", "ward": "Nkhande"}, {"name": "PHINDA", "type": "CBCC", "school_type": "Unknown", "lat": -15.6328914723632, "lon": 35.1182537431366, "district": "Chiradzulu", "constituency": "Chiradzulu Nyungwe", "ward": "Nkhande"}, {"name": "Lirangwe", "type": "CBCC", "school_type": "Unknown", "lat": -15.6236218410142, "lon": 35.1248433444046, "district": "Chiradzulu", "constituency": "Chiradzulu Nyungwe", "ward": "Nkhande"}, {"name": "Mwaiwathu", "type": "CBCC", "school_type": "Unknown", "lat": -15.6146498470122, "lon": 35.1135403484738, "district": "Chiradzulu", "constituency": "Chiradzulu Nyungwe", "ward": "Nkhande"}, {"name": "SALIHERA", "type": "CBCC", "school_type": "Unknown", "lat": -15.607280898748, "lon": 35.1238919139862, "district": "Chiradzulu", "constituency": "Chiradzulu Nyungwe", "ward": "Nkhande"}, {"name": "Tsogolo Lathu", "type": "CBCC", "school_type": "Unknown", "lat": -15.5884580790439, "lon": 35.1247615375087, "district": "Chiradzulu", "constituency": "Chiradzulu Nyungwe", "ward": "Nkhande"}, {"name": "TAKONDWA", "type": "CBCC", "school_type": "Unknown", "lat": -15.5935648324516, "lon": 35.1138427667641, "district": "Chiradzulu", "constituency": "Chiradzulu Nyungwe", "ward": "Nkhande"}, {"name": "Mbvunguti", "type": "CBCC", "school_type": "Unknown", "lat": -15.5822406335293, "lon": 35.125713971672, "district": "Chiradzulu", "constituency": "Chiradzulu Nyungwe", "ward": "Nkhande"}, {"name": "Chimwemwe CBCC", "type": "CBCC", "school_type": "Unknown", "lat": -15.5505151334941, "lon": 35.1507260739955, "district": "Chiradzulu", "constituency": "Chiradzulu Nyungwe", "ward": "Nkhande"}, {"name": "Pemphero", "type": "CBCC", "school_type": "Unknown", "lat": -15.5393796899918, "lon": 35.149047597641, "district": "Chiradzulu", "constituency": "Chiradzulu Nyungwe", "ward": "Nkhande"}, {"name": "Tiyamike", "type": "CBCC", "school_type": "Unknown", "lat": -15.5435435617305, "lon": 35.1310880301167, "district": "Chiradzulu", "constituency": "Chiradzulu Nyungwe", "ward": "Nkhande"}, {"name": "Tikondane3", "type": "CBCC", "school_type": "Unknown", "lat": -15.5441609807811, "lon": 35.1361939504218, "district": "Chiradzulu", "constituency": "Chiradzulu Nyungwe", "ward": "Nkhande"}, {"name": "BENI", "type": "CBCC", "school_type": "Unknown", "lat": -15.7489346388158, "lon": 35.1250735947639, "district": "Chiradzulu", "constituency": "Chiradzulu Masanjala", "ward": "Mombezi"}, {"name": "Mandimwi", "type": "CBCC", "school_type": "Unknown", "lat": -15.7388909457448, "lon": 35.1338856574997, "district": "Chiradzulu", "constituency": "Chiradzulu Masanjala", "ward": "Mombezi"}, {"name": "Dentama Cbcc", "type": "CBCC", "school_type": "Unknown", "lat": -15.7339458761, "lon": 35.1341613381271, "district": "Chiradzulu", "constituency": "Chiradzulu Masanjala", "ward": "Mombezi"}, {"name": "Moya Cbcc", "type": "CBCC", "school_type": "Unknown", "lat": -15.7182539399063, "lon": 35.1389128708444, "district": "Chiradzulu", "constituency": "Chiradzulu Masanjala", "ward": "Mombezi"}, {"name": "Chikondano Cbc", "type": "CBCC", "school_type": "Unknown", "lat": -15.7080180435741, "lon": 35.1311333764428, "district": "Chiradzulu", "constituency": "Chiradzulu Masanjala", "ward": "Mombezi"}, {"name": "Matiya Cbcc", "type": "CBCC", "school_type": "Unknown", "lat": -15.7129293434664, "lon": 35.1192071852318, "district": "Chiradzulu", "constituency": "Chiradzulu Masanjala", "ward": "Mombezi"}, {"name": "Talandira Cbcc", "type": "CBCC", "school_type": "Unknown", "lat": -15.6541624800672, "lon": 35.145280686896, "district": "Chiradzulu", "constituency": "Chiradzulu Nyungwe", "ward": "Mbulumbudzi"}, {"name": "Nyadirani", "type": "CBCC", "school_type": "Unknown", "lat": -15.643733120777, "lon": 35.1712865479255, "district": "Chiradzulu", "constituency": "Chiradzulu Nyungwe", "ward": "Mbulumbudzi"}, {"name": "Bawi", "type": "CBCC", "school_type": "Unknown", "lat": -15.6596066921548, "lon": 35.1705285718913, "district": "Chiradzulu", "constituency": "Chiradzulu Nyungwe", "ward": "Mbulumbudzi"}, {"name": "Balu Cbcc", "type": "CBCC", "school_type": "Unknown", "lat": -15.6746066916045, "lon": 35.1507172728038, "district": "Chiradzulu", "constituency": "Chiradzulu Nyungwe", "ward": "Mbulumbudzi"}, {"name": "Chotokwa Cbcc", "type": "CBCC", "school_type": "Unknown", "lat": -15.6808859948382, "lon": 35.1541620676889, "district": "Chiradzulu", "constituency": "Chiradzulu Nyungwe", "ward": "Mbulumbudzi"}, {"name": "Mgwirizano CBCC", "type": "CBCC", "school_type": "Unknown", "lat": -15.6789714828446, "lon": 35.1612569303012, "district": "Chiradzulu", "constituency": "Chiradzulu Nyungwe", "ward": "Mbulumbudzi"}, {"name": "Mpotola Cbcc", "type": "CBCC", "school_type": "Unknown", "lat": -15.6550270675751, "lon": 35.1713328989907, "district": "Chiradzulu", "constituency": "Chiradzulu Nyungwe", "ward": "Mbulumbudzi"}, {"name": "Matikiti Cbcc", "type": "CBCC", "school_type": "Unknown", "lat": -15.6393071420237, "lon": 35.1568949039797, "district": "Chiradzulu", "constituency": "Chiradzulu Nyungwe", "ward": "Mbulumbudzi"}, {"name": "Chigwirizano", "type": "CBCC", "school_type": "Unknown", "lat": -15.6244999249253, "lon": 35.173911257295, "district": "Chiradzulu", "constituency": "Chiradzulu Nyungwe", "ward": "Mbulumbudzi"}, {"name": "Mbombwe", "type": "CBCC", "school_type": "Unknown", "lat": -15.7965328685479, "lon": 35.2225055921439, "district": "Chiradzulu", "constituency": "Chiradzulu Thubwe", "ward": "Maera"}, {"name": "Mwaiwathu", "type": "CBCC", "school_type": "Unknown", "lat": -15.7889593181134, "lon": 35.2310482604523, "district": "Chiradzulu", "constituency": "Chiradzulu Thubwe", "ward": "Maera"}, {"name": "Nakuba", "type": "CBCC", "school_type": "Unknown", "lat": -15.8047137761837, "lon": 35.2369930412911, "district": "Chiradzulu", "constituency": "Chiradzulu Thubwe", "ward": "Maera"}, {"name": "Sabola", "type": "CBCC", "school_type": "Unknown", "lat": -15.8305335624838, "lon": 35.2496296819793, "district": "Chiradzulu", "constituency": "Chiradzulu Midima", "ward": "Mitumbira"}, {"name": "Ndachedwa", "type": "CBCC", "school_type": "Unknown", "lat": -15.8367465620909, "lon": 35.2547167434893, "district": "Chiradzulu", "constituency": "Chiradzulu Midima", "ward": "Mitumbira"}, {"name": "Makuwa", "type": "CBCC", "school_type": "Unknown", "lat": -15.8413059836304, "lon": 35.267370566893, "district": "Chiradzulu", "constituency": "Chiradzulu Midima", "ward": "Mitumbira"}, {"name": "Mulemba", "type": "CBCC", "school_type": "Unknown", "lat": -15.8437542533224, "lon": 35.286674928292, "district": "Chiradzulu", "constituency": "Chiradzulu Midima", "ward": "Mitumbira"}, {"name": "Chikasa", "type": "CBCC", "school_type": "Unknown", "lat": -15.8648687682837, "lon": 35.311672194386, "district": "Chiradzulu", "constituency": "Chiradzulu Midima", "ward": "Mitumbira"}, {"name": "Talimbanazo", "type": "CBCC", "school_type": "Unknown", "lat": -15.8503813195095, "lon": 35.301637546665, "district": "Chiradzulu", "constituency": "Chiradzulu Midima", "ward": "Mitumbira"}, {"name": "Chikondi", "type": "CBCC", "school_type": "Unknown", "lat": -15.8366982803684, "lon": 35.2820641274079, "district": "Chiradzulu", "constituency": "Chiradzulu Midima", "ward": "Mitumbira"}, {"name": "Likhawa", "type": "CBCC", "school_type": "Unknown", "lat": -15.8381694702711, "lon": 35.3094872830803, "district": "Chiradzulu", "constituency": "Chiradzulu Thubwe", "ward": "Maera"}, {"name": "Mulambe", "type": "CBCC", "school_type": "Unknown", "lat": -15.8267361383455, "lon": 35.3086621689092, "district": "Chiradzulu", "constituency": "Chiradzulu Thubwe", "ward": "Maera"}, {"name": "Umodzi", "type": "CBCC", "school_type": "Unknown", "lat": -15.8205313507244, "lon": 35.3009729456308, "district": "Chiradzulu", "constituency": "Chiradzulu Thubwe", "ward": "Maera"}, {"name": "Kamala", "type": "CBCC", "school_type": "Unknown", "lat": -15.8110039775386, "lon": 35.2812383418662, "district": "Chiradzulu", "constituency": "Chiradzulu Thubwe", "ward": "Maera"}, {"name": "Ndata", "type": "CBCC", "school_type": "Unknown", "lat": -15.8091462969472, "lon": 35.2683263547865, "district": "Chiradzulu", "constituency": "Chiradzulu Thubwe", "ward": "Maera"}, {"name": "Chawanda", "type": "CBCC", "school_type": "Unknown", "lat": -15.0010860002383, "lon": 35.0967310003415, "district": "Balaka", "constituency": "Balaka Rivirivi", "ward": "Chinkhumbe"}, {"name": "Mmango", "type": "CBCC", "school_type": "Unknown", "lat": -15.2430100016268, "lon": 35.0978529997249, "district": "Balaka", "constituency": "Balaka Utale", "ward": "Nkalizi"}, {"name": "Nsangu", "type": "CBCC", "school_type": "Unknown", "lat": -15.2303794873591, "lon": 34.8899456208709, "district": "Balaka", "constituency": "Balaka Utale", "ward": "Kangankundi"}, {"name": "Tadala", "type": "CBCC", "school_type": "Unknown", "lat": -15.1775470003466, "lon": 35.0607109995866, "district": "Balaka", "constituency": "Balaka Utale", "ward": "Nkalizi"}, {"name": "M'bwemba CBCC", "type": "CBCC", "school_type": "Unknown", "lat": -15.288221920825, "lon": 34.8380939986168, "district": "Balaka", "constituency": "Balaka Utale", "ward": "Kangankundi"}, {"name": "Titukule CBCC", "type": "CBCC", "school_type": "Unknown", "lat": -15.2583495759377, "lon": 34.8420228243152, "district": "Balaka", "constituency": "Balaka Utale", "ward": "Kangankundi"}, {"name": "Muonekera CBCC", "type": "CBCC", "school_type": "Unknown", "lat": -15.2207122871807, "lon": 34.8615471431166, "district": "Balaka", "constituency": "Balaka Utale", "ward": "Kangankundi"}, {"name": "Kambewe CBCC", "type": "CBCC", "school_type": "Unknown", "lat": -15.1590754743501, "lon": 34.8708785776253, "district": "Balaka", "constituency": "Balaka Utale", "ward": "Kangankundi"}, {"name": "Msanjika CBCC", "type": "CBCC", "school_type": "Unknown", "lat": -15.1322758828773, "lon": 34.8736759327088, "district": "Balaka", "constituency": "Balaka Utale", "ward": "Kangankundi"}, {"name": "Bamusi CBCC", "type": "CBCC", "school_type": "Unknown", "lat": -15.1714872411356, "lon": 34.8812416781143, "district": "Balaka", "constituency": "Balaka Utale", "ward": "Kangankundi"}, {"name": "Tilimbike CBC", "type": "CBCC", "school_type": "Unknown", "lat": -15.22876801543, "lon": 34.8838438785427, "district": "Balaka", "constituency": "Balaka Utale", "ward": "Kangankundi"}, {"name": "Agape Pvt", "type": "CBCC", "school_type": "Unknown", "lat": -15.2218972558074, "lon": 34.8852532588867, "district": "Balaka", "constituency": "Balaka Utale", "ward": "Kangankundi"}, {"name": "NjirayagomaCBC", "type": "CBCC", "school_type": "Unknown", "lat": -15.2175921534429, "lon": 34.885680285728, "district": "Balaka", "constituency": "Balaka Utale", "ward": "Kangankundi"}, {"name": "Phalula CBCC", "type": "CBCC", "school_type": "Unknown", "lat": -15.2228386409948, "lon": 34.8882957237621, "district": "Balaka", "constituency": "Balaka Utale", "ward": "Kangankundi"}, {"name": "Kasamiza CBCC", "type": "CBCC", "school_type": "Unknown", "lat": -15.1574656724515, "lon": 34.8883748755405, "district": "Balaka", "constituency": "Balaka Utale", "ward": "Kangankundi"}, {"name": "Rose GardenPVT", "type": "CBCC", "school_type": "Unknown", "lat": -15.2246191048154, "lon": 34.8893446847112, "district": "Balaka", "constituency": "Balaka Utale", "ward": "Kangankundi"}, {"name": "Nkomba CBCC", "type": "CBCC", "school_type": "Unknown", "lat": -14.9756248541302, "lon": 34.8873201877176, "district": "Ntcheu", "constituency": "Ntcheu Central Central East", "ward": "Bawi"}, {"name": "Ndakula CBCC", "type": "CBCC", "school_type": "Unknown", "lat": -15.2518231762149, "lon": 34.8900158160335, "district": "Balaka", "constituency": "Balaka Utale", "ward": "Kangankundi"}, {"name": "Mfula CBCC", "type": "CBCC", "school_type": "Unknown", "lat": -15.251832055413, "lon": 34.8900345119751, "district": "Balaka", "constituency": "Balaka Utale", "ward": "Kangankundi"}, {"name": "Msangu CBCC", "type": "CBCC", "school_type": "Unknown", "lat": -15.2303795178356, "lon": 34.8899452209279, "district": "Balaka", "constituency": "Balaka Utale", "ward": "Kangankundi"}, {"name": "Chilobwe CBCC", "type": "CBCC", "school_type": "Unknown", "lat": -15.2143300657238, "lon": 34.8899602268107, "district": "Balaka", "constituency": "Balaka Utale", "ward": "Kangankundi"}, {"name": "Luntha Pvt", "type": "CBCC", "school_type": "Unknown", "lat": -15.2193666556085, "lon": 34.8906659387836, "district": "Balaka", "constituency": "Balaka Utale", "ward": "Kangankundi"}, {"name": "KangankundiCBC", "type": "CBCC", "school_type": "Unknown", "lat": -15.2219223843077, "lon": 34.8908655822457, "district": "Balaka", "constituency": "Balaka Utale", "ward": "Kangankundi"}, {"name": "Njenjete CBCC", "type": "CBCC", "school_type": "Unknown", "lat": -15.0862258995249, "lon": 34.8908042580424, "district": "Balaka", "constituency": "Balaka Utale", "ward": "Kangankundi"}, {"name": "Mgoza CBCC", "type": "CBCC", "school_type": "Unknown", "lat": -15.1374679165033, "lon": 34.8936771206565, "district": "Balaka", "constituency": "Balaka Utale", "ward": "Kangankundi"}, {"name": "Talandira CBCC", "type": "CBCC", "school_type": "Unknown", "lat": -15.2136599490072, "lon": 34.8954916654007, "district": "Balaka", "constituency": "Balaka Utale", "ward": "Kangankundi"}, {"name": "Faith Pvt", "type": "CBCC", "school_type": "Unknown", "lat": -15.2614049555795, "lon": 34.8982373064269, "district": "Balaka", "constituency": "Balaka Utale", "ward": "Kangankundi"}, {"name": "TiferakasoCBCC", "type": "CBCC", "school_type": "Unknown", "lat": -15.1822739102345, "lon": 34.9010083968571, "district": "Balaka", "constituency": "Balaka Utale", "ward": "Kangankundi"}, {"name": "Sakayiko CBCC", "type": "CBCC", "school_type": "Unknown", "lat": -15.0180223777276, "lon": 34.8997238030693, "district": "Ntcheu", "constituency": "Ntcheu South", "ward": "Likudzi"}, {"name": "Khoswe CBCC", "type": "CBCC", "school_type": "Unknown", "lat": -15.0027026483567, "lon": 34.9032329596067, "district": "Ntcheu", "constituency": "Ntcheu South", "ward": "Likudzi"}, {"name": "Mkunkhu CBCC", "type": "CBCC", "school_type": "Unknown", "lat": -15.2415319568013, "lon": 34.9069105291528, "district": "Balaka", "constituency": "Balaka Utale", "ward": "Kangankundi"}, {"name": "Dziwa Pvt", "type": "CBCC", "school_type": "Unknown", "lat": -15.0906172125179, "lon": 34.9059667931756, "district": "Balaka", "constituency": "Balaka Utale", "ward": "Kangankundi"}, {"name": "Tseka CBCC", "type": "CBCC", "school_type": "Unknown", "lat": -14.9644401388852, "lon": 34.9075984215482, "district": "Balaka", "constituency": "Balaka Rivirivi", "ward": "Lingala"}, {"name": "MthengomwachaC", "type": "CBCC", "school_type": "Unknown", "lat": -15.2202412468448, "lon": 34.9133172513, "district": "Balaka", "constituency": "Balaka Utale", "ward": "Kangankundi"}, {"name": "Mphatso CBCC", "type": "CBCC", "school_type": "Unknown", "lat": -15.1645159575486, "lon": 34.9128428699899, "district": "Balaka", "constituency": "Balaka Utale", "ward": "Kangankundi"}, {"name": "Namitumbu CBCC", "type": "CBCC", "school_type": "Unknown", "lat": -15.104206020547, "lon": 34.9126922395662, "district": "Balaka", "constituency": "Balaka Utale", "ward": "Kangankundi"}, {"name": "Hope CBCC", "type": "CBCC", "school_type": "Unknown", "lat": -14.9483591016448, "lon": 34.9124476280438, "district": "Balaka", "constituency": "Balaka Rivirivi", "ward": "Lingala"}, {"name": "ChamthunyaCBCC", "type": "CBCC", "school_type": "Unknown", "lat": -15.0634033636, "lon": 34.9150242905704, "district": "Balaka", "constituency": "Balaka Utale", "ward": "Kangankundi"}, {"name": "MfulanjovuCBCC", "type": "CBCC", "school_type": "Unknown", "lat": -15.0900393117684, "lon": 34.9155510553302, "district": "Balaka", "constituency": "Balaka Utale", "ward": "Kangankundi"}, {"name": "Linzie CBCC", "type": "CBCC", "school_type": "Unknown", "lat": -15.0621938661596, "lon": 34.9159248599401, "district": "Balaka", "constituency": "Balaka Utale", "ward": "Kangankundi"}, {"name": "Khama CBCC", "type": "CBCC", "school_type": "Unknown", "lat": -15.0102946224425, "lon": 34.9171071313822, "district": "Balaka", "constituency": "Balaka Rivirivi", "ward": "Lingala"}, {"name": "Fumbi CBCC", "type": "CBCC", "school_type": "Unknown", "lat": -15.023788004721, "lon": 34.9180085896642, "district": "Balaka", "constituency": "Balaka Utale", "ward": "Kangankundi"}, {"name": "Nyanyala CBCC", "type": "CBCC", "school_type": "Unknown", "lat": -15.1900003311847, "lon": 34.9201723682238, "district": "Balaka", "constituency": "Balaka Utale", "ward": "Kangankundi"}, {"name": "ChiwenganaCBCC", "type": "CBCC", "school_type": "Unknown", "lat": -15.252473598391, "lon": 34.9219395428835, "district": "Balaka", "constituency": "Balaka Utale", "ward": "Kangankundi"}, {"name": "Miracle CBCC", "type": "CBCC", "school_type": "Unknown", "lat": -14.9428309289128, "lon": 34.9197042778585, "district": "Balaka", "constituency": "Balaka Rivirivi", "ward": "Lingala"}, {"name": "Kamvetsa CBCC", "type": "CBCC", "school_type": "Unknown", "lat": -15.182041200291, "lon": 34.9220358446966, "district": "Balaka", "constituency": "Balaka Utale", "ward": "Kangankundi"}, {"name": "Msimbiti CBCC", "type": "CBCC", "school_type": "Unknown", "lat": -15.2153735163427, "lon": 34.9235477062823, "district": "Balaka", "constituency": "Balaka Utale", "ward": "Kangankundi"}, {"name": "Alinafe CBCC", "type": "CBCC", "school_type": "Unknown", "lat": -14.9361033572227, "lon": 34.9223491484527, "district": "Balaka", "constituency": "Balaka Ngwangwa", "ward": "Mchengawede"}, {"name": "Mpambira CBCC", "type": "CBCC", "school_type": "Unknown", "lat": -15.1572147524231, "lon": 34.9244723136429, "district": "Balaka", "constituency": "Balaka Utale", "ward": "Kangankundi"}, {"name": "ThamangiraCBCC", "type": "CBCC", "school_type": "Unknown", "lat": -15.1848721676767, "lon": 34.9270304244972, "district": "Balaka", "constituency": "Balaka Utale", "ward": "Kangankundi"}, {"name": "Aanjaawo CBCC", "type": "CBCC", "school_type": "Unknown", "lat": -15.2592484661538, "lon": 34.9285543018671, "district": "Balaka", "constituency": "Balaka Utale", "ward": "Kangankundi"}, {"name": "Mphenzi Orphan", "type": "CBCC", "school_type": "Unknown", "lat": -15.0552758576349, "lon": 34.9271711998496, "district": "Balaka", "constituency": "Balaka Utale", "ward": "Kangankundi"}, {"name": "Chingagwe CBCC", "type": "CBCC", "school_type": "Unknown", "lat": -15.0187609967129, "lon": 34.9268618142213, "district": "Balaka", "constituency": "Balaka Rivirivi", "ward": "Lingala"}, {"name": "Tiyanjane CBC", "type": "CBCC", "school_type": "Unknown", "lat": -15.1861742031294, "lon": 34.9290521652718, "district": "Balaka", "constituency": "Balaka Utale", "ward": "Kangankundi"}, {"name": "ChikawonekaCBC", "type": "CBCC", "school_type": "Unknown", "lat": -15.1542311648993, "lon": 34.9299345757024, "district": "Balaka", "constituency": "Balaka Utale", "ward": "Kangankundi"}, {"name": "MwayiwathuCBCC", "type": "CBCC", "school_type": "Unknown", "lat": -15.2267978348117, "lon": 34.9348849868476, "district": "Balaka", "constituency": "Balaka Utale", "ward": "Kangankundi"}, {"name": "Msumwa CBCC", "type": "CBCC", "school_type": "Unknown", "lat": -15.1961419027331, "lon": 34.9353309970146, "district": "Balaka", "constituency": "Balaka Utale", "ward": "Kangankundi"}, {"name": "Beni CBCC", "type": "CBCC", "school_type": "Unknown", "lat": -15.2078068853798, "lon": 34.9365262562561, "district": "Balaka", "constituency": "Balaka Utale", "ward": "Kangankundi"}, {"name": "Chifundo CBCC", "type": "CBCC", "school_type": "Unknown", "lat": -15.2350408398223, "lon": 34.9378362972176, "district": "Balaka", "constituency": "Balaka Utale", "ward": "Kangankundi"}, {"name": "Matchingo CBCC", "type": "CBCC", "school_type": "Unknown", "lat": -14.9525117473693, "lon": 34.9354803884188, "district": "Balaka", "constituency": "Balaka Rivirivi", "ward": "Lingala"}, {"name": "Sele CBCC", "type": "CBCC", "school_type": "Unknown", "lat": -15.2046506404078, "lon": 34.9399592504828, "district": "Balaka", "constituency": "Balaka Utale", "ward": "Kangankundi"}, {"name": "Mponda CCBB", "type": "CBCC", "school_type": "Unknown", "lat": -14.9872153981242, "lon": 34.9404960550417, "district": "Balaka", "constituency": "Balaka Ngwangwa", "ward": "Mchengawede"}, {"name": "Chitsanzo CBCC", "type": "CBCC", "school_type": "Unknown", "lat": -15.2480877063326, "lon": 34.9432799324471, "district": "Balaka", "constituency": "Balaka Utale", "ward": "Kangankundi"}, {"name": "Tikondane CBCC", "type": "CBCC", "school_type": "Unknown", "lat": -15.046243215798, "lon": 34.9436516085638, "district": "Balaka", "constituency": "Balaka Utale", "ward": "Kangankundi"}, {"name": "MwaiwathuCBCC", "type": "CBCC", "school_type": "Unknown", "lat": -15.2559489903364, "lon": 34.9464611476156, "district": "Balaka", "constituency": "Balaka Utale", "ward": "Kangankundi"}, {"name": "ChisomoCBCC", "type": "CBCC", "school_type": "Unknown", "lat": -15.2619167863933, "lon": 34.9470746391204, "district": "Balaka", "constituency": "Balaka Utale", "ward": "Kangankundi"}, {"name": "Chiyambi CBCC", "type": "CBCC", "school_type": "Unknown", "lat": -15.2376363963272, "lon": 34.9501179048157, "district": "Balaka", "constituency": "Balaka Utale", "ward": "Kangankundi"}, {"name": "Tams Pvt", "type": "CBCC", "school_type": "Unknown", "lat": -14.981529386903, "lon": 34.9491925465275, "district": "Balaka", "constituency": "Balaka Ngwangwa", "ward": "Mchengawede"}, {"name": "Chimtendere Cb", "type": "CBCC", "school_type": "Unknown", "lat": -14.916894028681, "lon": 34.9487019085897, "district": "Balaka", "constituency": "Balaka Ngwangwa", "ward": "Mchengawede"}, {"name": "Mveriha CBCC", "type": "CBCC", "school_type": "Unknown", "lat": -15.2144444312614, "lon": 34.9516539140874, "district": "Balaka", "constituency": "Balaka Utale", "ward": "Kangankundi"}, {"name": "Day Star Pvt", "type": "CBCC", "school_type": "Unknown", "lat": -14.986889919809, "lon": 34.9521508487117, "district": "Balaka", "constituency": "Balaka Ngwangwa", "ward": "Mchengawede"}, {"name": "Crementina Pvt", "type": "CBCC", "school_type": "Unknown", "lat": -14.987768194183, "lon": 34.9530047889908, "district": "Balaka", "constituency": "Balaka Ngwangwa", "ward": "Mchengawede"}, {"name": "Alinafebe PVT", "type": "CBCC", "school_type": "Unknown", "lat": -14.9955298380481, "lon": 34.9531031145737, "district": "Balaka", "constituency": "Balaka Ngwangwa", "ward": "Mchengawede"}, {"name": "Fortune 2", "type": "CBCC", "school_type": "Unknown", "lat": -14.9832055458578, "lon": 34.9539581005901, "district": "Balaka", "constituency": "Balaka Ngwangwa", "ward": "Mchengawede"}, {"name": "Umodzi PVT", "type": "CBCC", "school_type": "Unknown", "lat": -14.9984795079668, "lon": 34.9547754442415, "district": "Balaka", "constituency": "Balaka Ngwangwa", "ward": "Mchengawede"}, {"name": "Chandikola CBC", "type": "CBCC", "school_type": "Unknown", "lat": -15.2240724678824, "lon": 34.9584434716159, "district": "Balaka", "constituency": "Balaka Utale", "ward": "Kangankundi"}, {"name": "ALCHA PVT", "type": "CBCC", "school_type": "Unknown", "lat": -14.9835722392424, "lon": 34.9565085995456, "district": "Balaka", "constituency": "Balaka Ngwangwa", "ward": "Mchengawede"}, {"name": "Chisomo CBCC", "type": "CBCC", "school_type": "Unknown", "lat": -15.1866635307544, "lon": 34.9613175489107, "district": "Balaka", "constituency": "Balaka Utale", "ward": "Kangankundi"}, {"name": "Madalitso Pvt", "type": "CBCC", "school_type": "Unknown", "lat": -14.9808155149903, "lon": 34.9597278988354, "district": "Balaka", "constituency": "Balaka Ngwangwa", "ward": "Mchengawede"}, {"name": "TalandiraCBCC", "type": "CBCC", "school_type": "Unknown", "lat": -15.2515121790698, "lon": 34.9640681593281, "district": "Balaka", "constituency": "Balaka Utale", "ward": "Kangankundi"}, {"name": "Murakho CBCC", "type": "CBCC", "school_type": "Unknown", "lat": -15.2023734234344, "lon": 34.9649431052738, "district": "Balaka", "constituency": "Balaka Utale", "ward": "Kangankundi"}, {"name": "Nazarene PVT", "type": "CBCC", "school_type": "Unknown", "lat": -14.9898669191802, "lon": 34.9632592825909, "district": "Balaka", "constituency": "Balaka Ngwangwa", "ward": "Mchengawede"}, {"name": "Mpulula II CBC", "type": "CBCC", "school_type": "Unknown", "lat": -15.0022465150049, "lon": 34.9654175934888, "district": "Balaka", "constituency": "Balaka Rivirivi", "ward": "Lingala"}, {"name": "Chitsa CBCC", "type": "CBCC", "school_type": "Unknown", "lat": -15.1981781027916, "lon": 34.9672864634673, "district": "Balaka", "constituency": "Balaka Utale", "ward": "Nkalizi"}, {"name": "San Marino Pvt", "type": "CBCC", "school_type": "Unknown", "lat": -14.9872551554969, "lon": 34.966424113953, "district": "Balaka", "constituency": "Balaka Ngwangwa", "ward": "Mchengawede"}, {"name": "Mlandula Cbcc", "type": "CBCC", "school_type": "Unknown", "lat": -14.9872984092885, "lon": 34.9666476215228, "district": "Balaka", "constituency": "Balaka Ngwangwa", "ward": "Mchengawede"}, {"name": "Binoni CBCC", "type": "CBCC", "school_type": "Unknown", "lat": -14.8479867879065, "lon": 34.9659111247536, "district": "Balaka", "constituency": "Balaka Bwaila", "ward": "Chikowa"}, {"name": "Tendayi Pvt", "type": "CBCC", "school_type": "Unknown", "lat": -14.9815768633247, "lon": 34.968900797508, "district": "Balaka", "constituency": "Balaka Ngwangwa", "ward": "Mchengawede"}, {"name": "Kasupe Pvt", "type": "CBCC", "school_type": "Unknown", "lat": -14.8126793209957, "lon": 34.9765902338573, "district": "Balaka", "constituency": "Balaka Bwaila", "ward": "Chikowa"}, {"name": "Mpulula 2", "type": "CBCC", "school_type": "Unknown", "lat": -15.0029423673757, "lon": 34.9800109467527, "district": "Balaka", "constituency": "Balaka Rivirivi", "ward": "Lingala"}, {"name": "Tiyanjane CBCC", "type": "CBCC", "school_type": "Unknown", "lat": -15.0386657478335, "lon": 34.9859844953784, "district": "Balaka", "constituency": "Balaka Rivirivi", "ward": "Lingala"}, {"name": "Mbatamila PVT", "type": "CBCC", "school_type": "Unknown", "lat": -15.0307526498117, "lon": 34.9866922986585, "district": "Balaka", "constituency": "Balaka Rivirivi", "ward": "Lingala"}, {"name": "Chikondi Rc Nu", "type": "CBCC", "school_type": "Unknown", "lat": -14.9341704972941, "lon": 34.9866937147386, "district": "Balaka", "constituency": "Balaka Bwaila", "ward": "Chikowa"}, {"name": "Mwanza Boarder Wellness Clinic", "type": "HCF", "school_type": "Unknown", "lat": -15.578416, "lon": 34.477079, "district": "Mwanza", "constituency": "Mwanza West", "ward": "Mpandadzi"}, {"name": "Chasolo  Dispensary", "type": "HCF", "school_type": "Unknown", "lat": -13.050895, "lon": 33.899911, "district": "Ntchisi", "constituency": "Ntchisi North", "ward": "Mapasa"}, {"name": "Kalanga Health Post", "type": "HCF", "school_type": "Unknown", "lat": -15.755476, "lon": 34.412718, "district": "Unknown", "constituency": "Unknown", "ward": "Unknown"}, {"name": "Good Samaritan Private Clinic", "type": "HCF", "school_type": "Unknown", "lat": -15.755476, "lon": 34.412718, "district": "Unknown", "constituency": "Unknown", "ward": "Unknown"}, {"name": "Ebenezer Private Clinic", "type": "HCF", "school_type": "Unknown", "lat": -15.610745, "lon": 34.522282, "district": "Unknown", "constituency": "Unknown", "ward": "Unknown"}, {"name": "Chisamba Health Center", "type": "HCF", "school_type": "Unknown", "lat": -13.794711, "lon": 34.330422, "district": "Salima", "constituency": "Salima South Linthipe", "ward": "Kambwiri-Chisamba"}, {"name": "Innocent Souls Private Clinic", "type": "HCF", "school_type": "Unknown", "lat": -13.497997, "lon": 34.263421, "district": "Salima", "constituency": "Salima North", "ward": "Chikombe/Chiluwa"}, {"name": "THANDIZO private clinic", "type": "HCF", "school_type": "Unknown", "lat": -14.766235, "lon": 35.683691, "district": "Machinga", "constituency": "Machinga South East", "ward": "Ngokwe"}, {"name": "ALENA PRIVATE CLINIC", "type": "HCF", "school_type": "Unknown", "lat": -14.765594, "lon": 35.668958, "district": "Machinga", "constituency": "Machinga East", "ward": "Nkoola"}, {"name": "NTAJA PVT CLINIC", "type": "HCF", "school_type": "Unknown", "lat": -14.870041, "lon": 35.528342, "district": "Machinga", "constituency": "Machinga Mikoko", "ward": "Mizinga"}, {"name": "EDEN MEDCARE PVT CLINIC", "type": "HCF", "school_type": "Unknown", "lat": -14.865003, "lon": 35.528248, "district": "Machinga", "constituency": "Machinga Mikoko", "ward": "Mizinga"}, {"name": "Njedza private clinic", "type": "HCF", "school_type": "Unknown", "lat": -16.026861, "lon": 35.508256, "district": "Mulanje", "constituency": "Mulanje South", "ward": "Chitakale"}, {"name": "Chitakale health care dental clinic", "type": "HCF", "school_type": "Unknown", "lat": -16.026861, "lon": 35.508256, "district": "Mulanje", "constituency": "Mulanje South", "ward": "Chitakale"}, {"name": "Rafiki Private Clinic", "type": "HCF", "school_type": "Unknown", "lat": -12.139619, "lon": 33.471108, "district": "Mzimba", "constituency": "Mzimba South", "ward": "Mabiri"}, {"name": "Chikuli private clinic", "type": "HCF", "school_type": "Unknown", "lat": -16.026861, "lon": 35.508256, "district": "Mulanje", "constituency": "Mulanje South", "ward": "Chitakale"}, {"name": "umoyo health centre", "type": "HCF", "school_type": "Unknown", "lat": -13.040623, "lon": 33.48122, "district": "Kasungu Municipality", "constituency": "Kasungu Central", "ward": "Kabvunguti"}, {"name": "Abwenzi private clinic", "type": "HCF", "school_type": "Unknown", "lat": -16.028438, "lon": 34.788084, "district": "Chikwawa", "constituency": "Chikwawa North", "ward": "Ndalanda"}, {"name": "Greater Light PVT clinic", "type": "HCF", "school_type": "Unknown", "lat": -14.228779, "lon": 34.813662, "district": "Mangochi", "constituency": "Mangochi West", "ward": "Malembo"}, {"name": "Yankho Clinic", "type": "HCF", "school_type": "Unknown", "lat": -13.585755, "lon": 34.194928, "district": "Salima", "constituency": "Salima North", "ward": "Lingadzi"}, {"name": "Grace Community Health Center", "type": "HCF", "school_type": "Unknown", "lat": -13.761839, "lon": 34.210148, "district": "Dowa", "constituency": "Dowa East", "ward": "Chiwere North East"}, {"name": "Watipatsa Private Clinic", "type": "HCF", "school_type": "Unknown", "lat": -13.591563, "lon": 34.312638, "district": "Salima", "constituency": "Salima North", "ward": "Chikombe/Chiluwa"}, {"name": "Ubale Private Clinic", "type": "HCF", "school_type": "Unknown", "lat": -13.586747, "lon": 34.31004, "district": "Salima", "constituency": "Salima North", "ward": "Chikombe/Chiluwa"}, {"name": "CHAGHI PRIVATE CLINIC", "type": "HCF", "school_type": "Unknown", "lat": -12.143142, "lon": 33.472509, "district": "Mzimba", "constituency": "Mzimba South", "ward": "Mabiri"}, {"name": "Matindi Medical clinic", "type": "HCF", "school_type": "Unknown", "lat": -14.093461, "lon": 33.967158, "district": "Lilongwe", "constituency": "Lilongwe Mpenu", "ward": "Mazengera"}, {"name": "Nyanja Health Centre", "type": "HCF", "school_type": "Unknown", "lat": -14.101975, "lon": 33.98075, "district": "Lilongwe", "constituency": "Lilongwe Nyanja", "ward": "Mtenthera"}, {"name": "Makawa Private Clinic. Monkey bay", "type": "HCF", "school_type": "Unknown", "lat": -14.078253, "lon": 34.917473, "district": "Mangochi", "constituency": "Mangochi Monkey-Bay", "ward": "Monkey-Bay"}, {"name": "Logos  Private clinic. Near Comhat Pharmacy", "type": "HCF", "school_type": "Unknown", "lat": -14.084015, "lon": 34.914122, "district": "Mangochi", "constituency": "Mangochi Monkey-Bay", "ward": "Monkey-Bay"}, {"name": "Mtengowamwayi Private Clinic. Situated in the middle of Cape Maclear", "type": "HCF", "school_type": "Unknown", "lat": -14.020911, "lon": 34.846167, "district": "Mangochi", "constituency": "Mangochi Monkey-Bay", "ward": "Monkey-Bay"}, {"name": "cape Maclear Dispensary", "type": "HCF", "school_type": "Unknown", "lat": -14.026037, "lon": 34.851804, "district": "Mangochi", "constituency": "Mangochi Monkey-Bay", "ward": "Monkey-Bay"}, {"name": "Msaka Dispersary", "type": "HCF", "school_type": "Unknown", "lat": -14.079422, "lon": 34.852417, "district": "Mangochi", "constituency": "Mangochi Monkey-Bay", "ward": "Monkey-Bay"}, {"name": "Mkanda PVT clinic", "type": "HCF", "school_type": "Unknown", "lat": -14.171057, "lon": 34.941112, "district": "Unknown", "constituency": "Unknown", "ward": "Unknown"}, {"name": "Bulala Health Centre", "type": "HCF", "school_type": "Unknown", "lat": -11.678136, "lon": 33.447953, "district": "Mzimba", "constituency": "Mzimba Hora", "ward": "Bulala"}, {"name": "Chikangawa  Health Centre", "type": "HCF", "school_type": "Unknown", "lat": -11.848828, "lon": 33.801173, "district": "Mzimba", "constituency": "Mzimba East", "ward": "Walula"}, {"name": "Dobera Private Clinic", "type": "HCF", "school_type": "Unknown", "lat": -11.89949, "lon": 33.593919, "district": "Mzimba", "constituency": "Mzimba Perekezi", "ward": "Boma"}, {"name": "Edingeni Health Centre", "type": "HCF", "school_type": "Unknown", "lat": -12.042037, "lon": 33.318274, "district": "Mzimba", "constituency": "Mzimba South West", "ward": "Engalaweni"}, {"name": "Ehehieni  Dispensary", "type": "HCF", "school_type": "Unknown", "lat": -12.26215, "lon": 33.58912, "district": "Mzimba", "constituency": "Mzimba South", "ward": "Luviri"}, {"name": "Embangweni  Mission Hospital", "type": "HCF", "school_type": "Unknown", "lat": -12.135915, "lon": 33.477239, "district": "Mzimba", "constituency": "Mzimba South", "ward": "Mabiri"}, {"name": "Emfeni Health Centre", "type": "HCF", "school_type": "Unknown", "lat": -12.593976, "lon": 33.609814, "district": "Mzimba", "constituency": "Mzimba Luwerezi", "ward": "Mabilabo South"}, {"name": "Endindeni Health Centre", "type": "HCF", "school_type": "Unknown", "lat": -11.758035, "lon": 33.556113, "district": "Mzimba", "constituency": "Mzimba Hora", "ward": "Mzalangwe"}, {"name": "Euthini Rural Hospital", "type": "HCF", "school_type": "Unknown", "lat": -11.458532, "lon": 33.419218, "district": "Mzimba", "constituency": "Mzimba Central", "ward": "Euthini"}, {"name": "Hoho Health Centre", "type": "HCF", "school_type": "Unknown", "lat": -12.278178, "lon": 33.686429, "district": "Mzimba", "constituency": "Mzimba Perekezi", "ward": "Hoho"}, {"name": "Jenda Health Centre", "type": "HCF", "school_type": "Unknown", "lat": -12.351998, "lon": 33.54731, "district": "Mzimba", "constituency": "Mzimba South", "ward": "Luviri"}, {"name": "Kalikumbi Health Centre", "type": "HCF", "school_type": "Unknown", "lat": -12.204058, "lon": 33.333714, "district": "Mzimba", "constituency": "Mzimba South West", "ward": "Kapopo"}, {"name": "Kamteteka Health Centre", "type": "HCF", "school_type": "Unknown", "lat": -11.836339, "lon": 33.359199, "district": "Mzimba", "constituency": "Mzimba South West", "ward": "Engalaweni"}, {"name": "Kaswavipimbi  Private Clinic", "type": "HCF", "school_type": "Unknown", "lat": -11.90064, "lon": 33.59437, "district": "Mzimba", "constituency": "Mzimba Perekezi", "ward": "Boma"}, {"name": "Katete Community Hospital", "type": "HCF", "school_type": "Unknown", "lat": -12.34591, "lon": 33.614257, "district": "Mzimba", "constituency": "Mzimba Luwerezi", "ward": "Mabilabo North"}, {"name": "Khosolo Health Centre", "type": "HCF", "school_type": "Unknown", "lat": -12.440312, "lon": 33.791261, "district": "Mzimba", "constituency": "Mzimba South East", "ward": "Khosolo North"}, {"name": "Lunjika Health Centre", "type": "HCF", "school_type": "Unknown", "lat": -11.714701, "lon": 33.685778, "district": "Mzimba", "constituency": "Mzimba East", "ward": "Kampingo Central"}, {"name": "Luwawa Health Centre", "type": "HCF", "school_type": "Unknown", "lat": -12.278178, "lon": 33.686429, "district": "Mzimba", "constituency": "Mzimba Perekezi", "ward": "Hoho"}, {"name": "Luwelezi Health Centre", "type": "HCF", "school_type": "Unknown", "lat": -12.488215, "lon": 33.641157, "district": "Mzimba", "constituency": "Mzimba Luwerezi", "ward": "Mabilabo North"}, {"name": "Mabiri Health Centre", "type": "HCF", "school_type": "Unknown", "lat": -11.939829, "lon": 33.439143, "district": "Mzimba", "constituency": "Mzimba Solola", "ward": "Manyamula"}, {"name": "Madede Health Centre", "type": "HCF", "school_type": "Unknown", "lat": -11.538911, "lon": 33.294598, "district": "Mzimba", "constituency": "Mzimba Central", "ward": "Mbalachanda"}, {"name": "Manyamula Health Centre", "type": "HCF", "school_type": "Unknown", "lat": -12.252776, "lon": 33.428132, "district": "Mzimba", "constituency": "Mzimba South", "ward": "Mabiri"}, {"name": "Mbalachanda  Health Centre", "type": "HCF", "school_type": "Unknown", "lat": -11.357456, "lon": 33.371245, "district": "Mzimba", "constituency": "Mzimba Central", "ward": "Mbalachanda"}, {"name": "Mbawemi Private Clinic", "type": "HCF", "school_type": "Unknown", "lat": -11.895303, "lon": 33.592313, "district": "Mzimba", "constituency": "Mzimba Perekezi", "ward": "Boma"}, {"name": "Mhalaunda Health Centre", "type": "HCF", "school_type": "Unknown", "lat": -12.050891, "lon": 33.466973, "district": "Mzimba", "constituency": "Mzimba Solola", "ward": "Manyamula"}, {"name": "Mkoma Health Centre", "type": "HCF", "school_type": "Unknown", "lat": -12.612386, "lon": 33.782541, "district": "Mzimba", "constituency": "Mzimba South East", "ward": "Khosolo South"}, {"name": "Moyo Uwemi Private Clinic", "type": "HCF", "school_type": "Unknown", "lat": -12.355969, "lon": 33.546696, "district": "Mzimba", "constituency": "Mzimba South", "ward": "Luviri"}, {"name": "Msese Health Centre", "type": "HCF", "school_type": "Unknown", "lat": -12.359506, "lon": 33.739932, "district": "Mzimba", "constituency": "Mzimba South East", "ward": "Khosolo North"}, {"name": "Mzalangwe  Health Centre", "type": "HCF", "school_type": "Unknown", "lat": -11.612266, "lon": 33.564966, "district": "Mzimba", "constituency": "Mzimba Hora", "ward": "Mzalangwe"}, {"name": "Mzambazi Community Hospital", "type": "HCF", "school_type": "Unknown", "lat": -11.42762, "lon": 33.450309, "district": "Mzimba", "constituency": "Mzimba Central", "ward": "Euthini"}, {"name": "Mzimba District Hospital", "type": "HCF", "school_type": "Unknown", "lat": -11.898188, "lon": 33.584262, "district": "Mzimba", "constituency": "Mzimba Perekezi", "ward": "Boma"}, {"name": "Mzimba Prison", "type": "HCF", "school_type": "Unknown", "lat": -11.909024, "lon": 33.584523, "district": "Mzimba", "constituency": "Mzimba Perekezi", "ward": "Boma"}, {"name": "Raiply Clinic", "type": "HCF", "school_type": "Unknown", "lat": -11.916488, "lon": 33.756082, "district": "Mzimba", "constituency": "Mzimba East", "ward": "Walula"}, {"name": "Temwa Private Clinic", "type": "HCF", "school_type": "Unknown", "lat": -11.901911, "lon": 33.768791, "district": "Mzimba", "constituency": "Mzimba East", "ward": "Walula"}, {"name": "Ungwelu Private Clinic", "type": "HCF", "school_type": "Unknown", "lat": -11.896613, "lon": 33.594318, "district": "Mzimba", "constituency": "Mzimba Perekezi", "ward": "Boma"}, {"name": "Vibangalala Dispensary", "type": "HCF", "school_type": "Unknown", "lat": -12.234376, "lon": 33.486171, "district": "Mzimba", "constituency": "Mzimba South", "ward": "Mabiri"}, {"name": "Engalaweni Health Centre", "type": "HCF", "school_type": "Unknown", "lat": -11.912639, "lon": 33.365622, "district": "Mzimba", "constituency": "Mzimba South West", "ward": "Engalaweni"}, {"name": "Rev Andrew Mkochi Memorial Clinic", "type": "HCF", "school_type": "Unknown", "lat": -11.912639, "lon": 33.365622, "district": "Mzimba", "constituency": "Mzimba South West", "ward": "Engalaweni"}, {"name": "Elizabeth Grazer PVT Clinic", "type": "HCF", "school_type": "Unknown", "lat": -11.360009, "lon": 33.374037, "district": "Mzimba", "constituency": "Mzimba Central", "ward": "Mbalachanda"}, {"name": "Umoyo PVT Clinic", "type": "HCF", "school_type": "Unknown", "lat": -11.459177, "lon": 33.412597, "district": "Mzimba", "constituency": "Mzimba Central", "ward": "Euthini"}, {"name": "Trust Clinic", "type": "HCF", "school_type": "Unknown", "lat": -11.899655, "lon": 33.6021, "district": "Mzimba", "constituency": "Mzimba Perekezi", "ward": "Boma"}, {"name": "Linga lithu PVT Clinic", "type": "HCF", "school_type": "Unknown", "lat": -11.921486, "lon": 33.756719, "district": "Mzimba", "constituency": "Mzimba East", "ward": "Walula"}, {"name": "Tapona PVT Clinic", "type": "HCF", "school_type": "Unknown", "lat": -11.452574, "lon": 33.418403, "district": "Mzimba", "constituency": "Mzimba Central", "ward": "Euthini"}, {"name": "Umoyo PVT Clinic (Madede)", "type": "HCF", "school_type": "Unknown", "lat": -11.546317, "lon": 33.297999, "district": "Mzimba", "constituency": "Mzimba Central", "ward": "Mbalachanda"}, {"name": "Lusako PVT Clinic", "type": "HCF", "school_type": "Unknown", "lat": -11.451525, "lon": 33.416169, "district": "Mzimba", "constituency": "Mzimba Central", "ward": "Euthini"}, {"name": "Bulala Life Care PVT Clinic", "type": "HCF", "school_type": "Unknown", "lat": -11.677817, "lon": 33.445842, "district": "Mzimba", "constituency": "Mzimba Hora", "ward": "Bulala"}, {"name": "Mjinge Health Post", "type": "HCF", "school_type": "Unknown", "lat": -11.93646, "lon": 33.358227, "district": "Mzimba", "constituency": "Mzimba South West", "ward": "Engalaweni"}, {"name": "New life PVT Clinic (Kanjuchi Trading Centre)", "type": "HCF", "school_type": "Unknown", "lat": -12.613249, "lon": 33.772182, "district": "Mzimba", "constituency": "Mzimba South East", "ward": "Khosolo South"}, {"name": "Gonthi pvt clinic", "type": "HCF", "school_type": "Unknown", "lat": -12.611265, "lon": 33.771111, "district": "Mzimba", "constituency": "Mzimba South East", "ward": "Khosolo South"}, {"name": "Moyo Wanga PVT Clinic", "type": "HCF", "school_type": "Unknown", "lat": -12.597774, "lon": 33.602868, "district": "Mzimba", "constituency": "Mzimba Luwerezi", "ward": "Mabilabo South"}, {"name": "Madalitso Medical and Optical PVT Clinic", "type": "HCF", "school_type": "Unknown", "lat": -12.544932, "lon": 33.61118, "district": "Mzimba", "constituency": "Mzimba Luwerezi", "ward": "Mabilabo South"}, {"name": "Tovwirane PVT Clinic (Khosolo Trading Centre)", "type": "HCF", "school_type": "Unknown", "lat": -12.44043, "lon": 33.793715, "district": "Mzimba", "constituency": "Mzimba South East", "ward": "Khosolo North"}, {"name": "Buyanazo PVT Clinic (Luwelezi Trading Centre)", "type": "HCF", "school_type": "Unknown", "lat": -12.468838, "lon": 33.654468, "district": "Mzimba", "constituency": "Mzimba Luwerezi", "ward": "Mabilabo North"}, {"name": "Maranatha PVT Clinic (Jenda )", "type": "HCF", "school_type": "Unknown", "lat": -12.354627, "lon": 33.552763, "district": "Mzimba", "constituency": "Mzimba South", "ward": "Luviri"}, {"name": "Jerusalem PVT Clinic", "type": "HCF", "school_type": "Unknown", "lat": -12.359222, "lon": 33.554157, "district": "Mzimba", "constituency": "Mzimba Luwerezi", "ward": "Mabilabo North"}, {"name": "Zawanje PVT Clinic", "type": "HCF", "school_type": "Unknown", "lat": -11.756598, "lon": 33.558118, "district": "Mzimba", "constituency": "Mzimba Hora", "ward": "Mzalangwe"}, {"name": "Rafiki PVT Clinic (Mzimba Boma)", "type": "HCF", "school_type": "Unknown", "lat": -11.893683, "lon": 33.584219, "district": "Mzimba", "constituency": "Mzimba Perekezi", "ward": "Boma"}, {"name": "Uchizi PVT Clinic", "type": "HCF", "school_type": "Unknown", "lat": -11.894834, "lon": 33.591575, "district": "Mzimba", "constituency": "Mzimba Perekezi", "ward": "Boma"}, {"name": "Mbawemi 2 PVT Clinic", "type": "HCF", "school_type": "Unknown", "lat": -11.899891, "lon": 33.595197, "district": "Mzimba", "constituency": "Mzimba Perekezi", "ward": "Boma"}, {"name": "Ng'ombeng'ombe PVT Clinic", "type": "HCF", "school_type": "Unknown", "lat": -11.608626, "lon": 33.568481, "district": "Mzimba", "constituency": "Mzimba Hora", "ward": "Mzalangwe"}, {"name": "Hora Health Centre", "type": "HCF", "school_type": "Unknown", "lat": -11.64501, "lon": 33.651729, "district": "Mzimba", "constituency": "Mzimba Hora", "ward": "Mzalangwe"}, {"name": "Elma PVT Clinic", "type": "HCF", "school_type": "Unknown", "lat": -12.141679, "lon": 33.473135, "district": "Mzimba", "constituency": "Mzimba South", "ward": "Mabiri"}, {"name": "Rafiki PVT Clinic (Manyamula TC)", "type": "HCF", "school_type": "Unknown", "lat": -11.94165, "lon": 33.441082, "district": "Mzimba", "constituency": "Mzimba Solola", "ward": "Manyamula"}, {"name": "Balinase PVT Clinic", "type": "HCF", "school_type": "Unknown", "lat": -11.884119, "lon": 33.446906, "district": "Mzimba", "constituency": "Mzimba Solola", "ward": "Emthuzini"}, {"name": "Bwengu Health Centre", "type": "HCF", "school_type": "Unknown", "lat": -11.063669, "lon": 33.916447, "district": "Mzimba", "constituency": "Mzimba North", "ward": "Kasito East"}, {"name": "Care Medical Centre, Mtambo, M", "type": "HCF", "school_type": "Unknown", "lat": -11.471481, "lon": 33.994916, "district": "Mzuzu City", "constituency": "Mzuzu City South East", "ward": "Masasa"}, {"name": "Chibanja Private Clinic, Mtika", "type": "HCF", "school_type": "Unknown", "lat": -11.450397, "lon": 34.008614, "district": "Mzuzu City", "constituency": "Mzuzu City South East", "ward": "Central"}, {"name": "Choma Health Centre", "type": "HCF", "school_type": "Unknown", "lat": -11.313048, "lon": 33.991317, "district": "Mzimba", "constituency": "Mzimba North East", "ward": "Ekwendeni"}, {"name": "Dr Musachi's Surgery", "type": "HCF", "school_type": "Unknown", "lat": -11.457619, "lon": 34.017053, "district": "Mzuzu City", "constituency": "Mzuzu City South East", "ward": "Central South"}, {"name": "Ekwaiweni Dispensary", "type": "HCF", "school_type": "Unknown", "lat": -11.423149, "lon": 33.897846, "district": "Mzimba", "constituency": "Mzimba North East", "ward": "Lusangadzi"}, {"name": "Ekwendeni Mission Hospital", "type": "HCF", "school_type": "Unknown", "lat": -11.371102, "lon": 33.883355, "district": "Mzimba", "constituency": "Mzimba North East", "ward": "Ekwendeni"}, {"name": "Emsizini Health Centre", "type": "HCF", "school_type": "Unknown", "lat": -11.444342, "lon": 33.824926, "district": "Mzimba", "constituency": "Mzimba North East", "ward": "Lusangadzi"}, {"name": "Engucwini Health Centre", "type": "HCF", "school_type": "Unknown", "lat": -11.19828, "lon": 33.822996, "district": "Mzimba", "constituency": "Mzimba Kafukule", "ward": "Kavunguti"}, {"name": "Enukweni Health Centre", "type": "HCF", "school_type": "Unknown", "lat": -11.180053, "lon": 33.885897, "district": "Mzimba", "constituency": "Mzimba North", "ward": "Kasito East"}, {"name": "Escom, Mzuzu", "type": "HCF", "school_type": "Unknown", "lat": -11.462958, "lon": 34.022987, "district": "Mzuzu City", "constituency": "Mzuzu City South East", "ward": "Central South"}, {"name": "Kabwafu Health Centre", "type": "HCF", "school_type": "Unknown", "lat": -11.308794, "lon": 33.525551, "district": "Mzimba", "constituency": "Mzimba West", "ward": "Emciseni"}, {"name": "Kamwe Health Centre", "type": "HCF", "school_type": "Unknown", "lat": -11.102959, "lon": 33.788869, "district": "Mzimba", "constituency": "Mzimba North", "ward": "Kasito West"}, {"name": "Kaweche Health Centre", "type": "HCF", "school_type": "Unknown", "lat": -11.340424, "lon": 33.866056, "district": "Mzimba", "constituency": "Mzimba North East", "ward": "Ekwendeni"}, {"name": "Luvwere Health Centre", "type": "HCF", "school_type": "Unknown", "lat": -11.388835, "lon": 33.672836, "district": "Mzimba", "constituency": "Mzimba Kafukule", "ward": "Kavunguti"}, {"name": "Luzi Health Centre", "type": "HCF", "school_type": "Unknown", "lat": -10.99685, "lon": 33.9559, "district": "Mzimba", "constituency": "Mzimba North", "ward": "Kasito East"}, {"name": "Macro Mzuzu", "type": "HCF", "school_type": "Unknown", "lat": -11.464897, "lon": 34.004257, "district": "Mzuzu City", "constituency": "Mzuzu City South East", "ward": "Masasa"}, {"name": "Malidade Health Centre", "type": "HCF", "school_type": "Unknown", "lat": -11.229373, "lon": 33.499823, "district": "Mzimba", "constituency": "Mzimba West", "ward": "Emciseni"}, {"name": "Manolo Health Centre", "type": "HCF", "school_type": "Unknown", "lat": -11.250767, "lon": 33.439585, "district": "Mzimba", "constituency": "Mzimba West", "ward": "Emciseni"}, {"name": "Mary Mount Clinic", "type": "HCF", "school_type": "Unknown", "lat": -11.438309, "lon": 34.030899, "district": "Mzuzu City", "constituency": "Mzuzu City North", "ward": "Zolozolo East"}, {"name": "Masm Medi Clinic Katoto", "type": "HCF", "school_type": "Unknown", "lat": -11.471481, "lon": 33.994916, "district": "Mzuzu City", "constituency": "Mzuzu City South East", "ward": "Masasa"}, {"name": "Matuli Health Centre", "type": "HCF", "school_type": "Unknown", "lat": -11.485163, "lon": 33.896296, "district": "Mzimba", "constituency": "Mzimba North East", "ward": "Lusangadzi"}, {"name": "Moyale Barracks Clinics", "type": "HCF", "school_type": "Unknown", "lat": -11.459803, "lon": 34.038331, "district": "Mzuzu City", "constituency": "Mzuzu City South East", "ward": "Katawa-Kaning'ina"}, {"name": "Mpherembe  Health Centre", "type": "HCF", "school_type": "Unknown", "lat": -11.287973, "lon": 33.614542, "district": "Mzimba", "constituency": "Mzimba West", "ward": "Mpherembe"}, {"name": "Mtende Health Centre", "type": "HCF", "school_type": "Unknown", "lat": -11.497251, "lon": 33.548967, "district": "Mzimba", "constituency": "Mzimba Kafukule", "ward": "Ezondweni"}, {"name": "Mtwalo Health Centre", "type": "HCF", "school_type": "Unknown", "lat": -11.405237, "lon": 33.742867, "district": "Mzimba", "constituency": "Mzimba Kafukule", "ward": "Kavunguti"}, {"name": "Mumbwe Medical Centre", "type": "HCF", "school_type": "Unknown", "lat": -11.46106, "lon": 34.025941, "district": "Mzuzu City", "constituency": "Mzuzu City South East", "ward": "Katawa-Kaning'ina"}, {"name": "Mzuzu BLM", "type": "HCF", "school_type": "Unknown", "lat": -11.456058, "lon": 34.01663, "district": "Mzuzu City", "constituency": "Mzuzu City South East", "ward": "Central South"}, {"name": "Mzuzu Central Prison", "type": "HCF", "school_type": "Unknown", "lat": -11.464676, "lon": 34.019942, "district": "Mzuzu City", "constituency": "Mzuzu City South East", "ward": "Central South"}, {"name": "Mzuzu Health Centre", "type": "HCF", "school_type": "Unknown", "lat": -11.461478, "lon": 34.015607, "district": "Mzuzu City", "constituency": "Mzuzu City South East", "ward": "Central South"}, {"name": "Mzuzu Police Clinic", "type": "HCF", "school_type": "Unknown", "lat": -11.461998, "lon": 34.02517, "district": "Mzuzu City", "constituency": "Mzuzu City South East", "ward": "Katawa-Kaning'ina"}, {"name": "Mzuzu University Clinic", "type": "HCF", "school_type": "Unknown", "lat": -11.422287, "lon": 33.996053, "district": "Mzuzu City", "constituency": "Mzuzu City North", "ward": "Luwinga"}, {"name": "Njuyu Health Centre", "type": "HCF", "school_type": "Unknown", "lat": -11.524561, "lon": 33.69952, "district": "Mzimba", "constituency": "Mzimba East", "ward": "Kampingo Central"}, {"name": "Nkhorongo  Health Centre", "type": "HCF", "school_type": "Unknown", "lat": -11.3898, "lon": 33.985134, "district": "Mzuzu City", "constituency": "Mzuzu City North", "ward": "Lupaso-Nkhorongo"}, {"name": "St. Johns Hospital", "type": "HCF", "school_type": "Unknown", "lat": -11.451807, "lon": 34.027858, "district": "Mzuzu City", "constituency": "Mzuzu City South East", "ward": "Katawa-Kaning'ina"}, {"name": "Thunduwike  Health Centre", "type": "HCF", "school_type": "Unknown", "lat": -11.176491, "lon": 33.576063, "district": "Mzimba", "constituency": "Mzimba West", "ward": "Mpherembe"}, {"name": "Wezi Medical Centre", "type": "HCF", "school_type": "Unknown", "lat": -11.465898, "lon": 34.013748, "district": "Mzuzu City", "constituency": "Mzuzu City South East", "ward": "Central South"}, {"name": "Zolozolo Health Post", "type": "HCF", "school_type": "Unknown", "lat": -11.437941, "lon": 34.026721, "district": "Mzuzu City", "constituency": "Mzuzu City North", "ward": "Zolozolo East"}, {"name": "Kafukule Health Centre", "type": "HCF", "school_type": "Unknown", "lat": -11.457396, "lon": 33.63392, "district": "Mzimba", "constituency": "Mzimba Kafukule", "ward": "Ezondweni"}, {"name": "Khuyukuyu Health Centre", "type": "HCF", "school_type": "Unknown", "lat": -11.222125, "lon": 33.914621, "district": "Mzimba", "constituency": "Mzimba North", "ward": "Kasito East"}, {"name": "Enukweni Health Centre", "type": "HCF", "school_type": "Unknown", "lat": -11.181176, "lon": 33.884627, "district": "Mzimba", "constituency": "Mzimba North", "ward": "Kasito East"}, {"name": "Padro Pio Health Centre", "type": "HCF", "school_type": "Unknown", "lat": -11.50403, "lon": 33.942423, "district": "Mzimba", "constituency": "Mzimba East", "ward": "Kampingo Central"}, {"name": "Mbamwawi Private Clinic", "type": "HCF", "school_type": "Unknown", "lat": -11.504459, "lon": 33.964724, "district": "Mzimba", "constituency": "Mzimba East", "ward": "Kampingo Central"}, {"name": "St John of God", "type": "HCF", "school_type": "Unknown", "lat": -11.453796, "lon": 34.026329, "district": "Mzuzu City", "constituency": "Mzuzu City South East", "ward": "Katawa-Kaning'ina"}, {"name": "Anchor Health Centre", "type": "HCF", "school_type": "Unknown", "lat": -13.41428, "lon": 33.390958, "district": "Kasungu", "constituency": "Kasungu South", "ward": "Chiyanjaweni"}, {"name": "Bua Health Centre", "type": "HCF", "school_type": "Unknown", "lat": -13.293937, "lon": 33.538756, "district": "Kasungu", "constituency": "Kasungu South East", "ward": "Bua"}, {"name": "Chamama Health Centre", "type": "HCF", "school_type": "Unknown", "lat": -12.924964, "lon": 33.777532, "district": "Kasungu", "constituency": "Kasungu North East", "ward": "Ndonda"}, {"name": "Chamwabvi  Health Centre", "type": "HCF", "school_type": "Unknown", "lat": -13.107728, "lon": 33.685262, "district": "Kasungu", "constituency": "Kasungu South East", "ward": "Chibophi"}, {"name": "Chimwemwe Private Clinic", "type": "HCF", "school_type": "Unknown", "lat": -12.567263, "lon": 33.511573, "district": "Kasungu", "constituency": "Kasungu North", "ward": "Chimaliro"}, {"name": "Chinyama Health Centre", "type": "HCF", "school_type": "Unknown", "lat": -12.974552, "lon": 33.796698, "district": "Kasungu", "constituency": "Kasungu North East", "ward": "Mbongozi"}, {"name": "Chulu Health Centre", "type": "HCF", "school_type": "Unknown", "lat": -12.821885, "lon": 33.30814, "district": "Kasungu", "constituency": "Kasungu North West", "ward": "Mpasadzi"}, {"name": "Dwangwa Dispensary", "type": "HCF", "school_type": "Unknown", "lat": -12.881427, "lon": 33.453869, "district": "Kasungu", "constituency": "Kasungu North West", "ward": "Mpasadzi"}, {"name": "Gogo Leya Private Clinic", "type": "HCF", "school_type": "Unknown", "lat": -12.700333, "lon": 33.489011, "district": "Kasungu", "constituency": "Kasungu North", "ward": "Milenje"}, {"name": "Gogode Dispensary", "type": "HCF", "school_type": "Unknown", "lat": -12.879117, "lon": 33.457096, "district": "Kasungu", "constituency": "Kasungu North West", "ward": "Mpasadzi"}, {"name": "Kalikene Private Clinic", "type": "HCF", "school_type": "Unknown", "lat": -13.040299, "lon": 33.481283, "district": "Kasungu Municipality", "constituency": "Kasungu Central", "ward": "Kabvunguti"}, {"name": "Kamboni Health Centre", "type": "HCF", "school_type": "Unknown", "lat": -13.307633, "lon": 33.18189, "district": "Kasungu", "constituency": "Kasungu South West", "ward": "Rusa"}, {"name": "Kamuzu Academy Clinic", "type": "HCF", "school_type": "Unknown", "lat": -13.029398, "lon": 33.688673, "district": "Kasungu", "constituency": "Kasungu East", "ward": "Kachokolo"}, {"name": "Kapelula Health Centre", "type": "HCF", "school_type": "Unknown", "lat": -12.877937, "lon": 33.870691, "district": "Kasungu", "constituency": "Kasungu North East", "ward": "Ndonda"}, {"name": "Kapyanga Health Post", "type": "HCF", "school_type": "Unknown", "lat": -12.824316, "lon": 33.787472, "district": "Kasungu", "constituency": "Kasungu North North East", "ward": "Nthabua"}, {"name": "Kasalika Health Centre", "type": "HCF", "school_type": "Unknown", "lat": -13.039892, "lon": 33.498654, "district": "Kasungu Municipality", "constituency": "Kasungu Central", "ward": "Kaswalipande"}, {"name": "Kasalika Private Clinic, Chimb", "type": "HCF", "school_type": "Unknown", "lat": -13.444712, "lon": 33.391216, "district": "Kasungu", "constituency": "Kasungu South", "ward": "Chiyanjaweni"}, {"name": "Kasungu BLM", "type": "HCF", "school_type": "Unknown", "lat": -13.046248, "lon": 33.479262, "district": "Kasungu Municipality", "constituency": "Kasungu Central", "ward": "Kabvunguti"}, {"name": "Kasungu District Hospital", "type": "HCF", "school_type": "Unknown", "lat": -13.035877, "lon": 33.480409, "district": "Kasungu Municipality", "constituency": "Kasungu Central", "ward": "Chankhanga"}, {"name": "Kasungu Prison", "type": "HCF", "school_type": "Unknown", "lat": -13.021339, "lon": 33.457165, "district": "Kasungu Municipality", "constituency": "Kasungu Central", "ward": "Chimphangwe"}, {"name": "Kawamba Health Centre", "type": "HCF", "school_type": "Unknown", "lat": -13.295757, "lon": 33.339381, "district": "Kasungu", "constituency": "Kasungu South West", "ward": "Rusa"}, {"name": "Khola Health Centre", "type": "HCF", "school_type": "Unknown", "lat": -13.344478, "lon": 33.316432, "district": "Kasungu", "constituency": "Kasungu South West", "ward": "Misozi"}, {"name": "KTFT/Mziza Health Centre", "type": "HCF", "school_type": "Unknown", "lat": -13.235972, "lon": 33.480214, "district": "Kasungu", "constituency": "Kasungu West", "ward": "Lisasadzi"}, {"name": "Linyangwa Health Centre", "type": "HCF", "school_type": "Unknown", "lat": -13.144096, "lon": 33.301883, "district": "Kasungu", "constituency": "Kasungu West", "ward": "Lifupa"}, {"name": "Livwezi Health Centre", "type": "HCF", "school_type": "Unknown", "lat": -12.893435, "lon": 33.679127, "district": "Kasungu", "constituency": "Kasungu East", "ward": "Livwezi"}, {"name": "Lodjwa Health Centre", "type": "HCF", "school_type": "Unknown", "lat": -12.418915, "lon": 33.529466, "district": "Kasungu", "constituency": "Kasungu North", "ward": "Chimaliro"}, {"name": "MAFUPHIZI", "type": "HCF", "school_type": "Unknown", "lat": -12.708548, "lon": 33.437545, "district": "Kasungu", "constituency": "Kasungu North", "ward": "Milenje"}, {"name": "Mchenga Private Clinic", "type": "HCF", "school_type": "Unknown", "lat": -12.574994, "lon": 33.514472, "district": "Kasungu", "constituency": "Kasungu North", "ward": "Chimaliro"}, {"name": "Mkhota Health Centre", "type": "HCF", "school_type": "Unknown", "lat": -13.56673, "lon": 33.343686, "district": "Kasungu", "constituency": "Kasungu South", "ward": "Chigodi"}, {"name": "Mpepa Health Centre", "type": "HCF", "school_type": "Unknown", "lat": -12.621497, "lon": 33.326597, "district": "Kasungu", "constituency": "Kasungu North West", "ward": "Matenje"}, {"name": "Mtendere Private Clinic", "type": "HCF", "school_type": "Unknown", "lat": -13.047172, "lon": 33.496489, "district": "Kasungu Municipality", "constituency": "Kasungu Central", "ward": "Mnthawira"}, {"name": "Mtunthama  Health Centre", "type": "HCF", "school_type": "Unknown", "lat": -13.031494, "lon": 33.682476, "district": "Kasungu", "constituency": "Kasungu East", "ward": "Kachokolo"}, {"name": "Nkhamenya  Hospital", "type": "HCF", "school_type": "Unknown", "lat": -12.56877, "lon": 33.500524, "district": "Kasungu", "constituency": "Kasungu North", "ward": "Chimaliro"}, {"name": "Ofesi Health Centre", "type": "HCF", "school_type": "Unknown", "lat": -12.77942, "lon": 33.548784, "district": "Kasungu", "constituency": "Kasungu North North East", "ward": "Mafomba"}, {"name": "Santhe Health Centre", "type": "HCF", "school_type": "Unknown", "lat": -13.466961, "lon": 33.393979, "district": "Kasungu", "constituency": "Kasungu South", "ward": "Chiyanjaweni"}, {"name": "Simlemba Health Centre", "type": "HCF", "school_type": "Unknown", "lat": -12.731048, "lon": 33.678381, "district": "Mzimba", "constituency": "Mzimba Luwerezi", "ward": "Mabilabo South"}, {"name": "St. Andrews Health Centre", "type": "HCF", "school_type": "Unknown", "lat": -13.032875, "lon": 33.671289, "district": "Kasungu", "constituency": "Kasungu East", "ward": "Kachokolo"}, {"name": "St. Faith Anglican Clinic", "type": "HCF", "school_type": "Unknown", "lat": -12.928672, "lon": 33.797189, "district": "Kasungu", "constituency": "Kasungu North East", "ward": "Mbongozi"}, {"name": "Thupa Health Centre", "type": "HCF", "school_type": "Unknown", "lat": -12.682503, "lon": 33.393841, "district": "Kasungu", "constituency": "Kasungu North", "ward": "Milenje"}, {"name": "Wimbe Health Centre", "type": "HCF", "school_type": "Unknown", "lat": -12.991142, "lon": 33.686871, "district": "Kasungu", "constituency": "Kasungu East", "ward": "Kachokolo"}, {"name": "Yankho Private Clinic", "type": "HCF", "school_type": "Unknown", "lat": -12.625258, "lon": 33.327029, "district": "Kasungu", "constituency": "Kasungu North West", "ward": "Matenje"}, {"name": "Kakwale health centre", "type": "HCF", "school_type": "Unknown", "lat": -12.353768, "lon": 33.553382, "district": "Mzimba", "constituency": "Mzimba South", "ward": "Luviri"}, {"name": "Newa health Centre", "type": "HCF", "school_type": "Unknown", "lat": -12.583264, "lon": 33.381844, "district": "Kasungu", "constituency": "Kasungu North West", "ward": "Matenje"}, {"name": "Mnyanja health center", "type": "HCF", "school_type": "Unknown", "lat": -12.722335, "lon": 33.485747, "district": "Kasungu", "constituency": "Kasungu North North East", "ward": "Mafomba"}, {"name": "Chisomo Private Clinic", "type": "HCF", "school_type": "Unknown", "lat": -12.57002, "lon": 33.511362, "district": "Kasungu", "constituency": "Kasungu North", "ward": "Chimaliro"}, {"name": "Chimphamba private clinic", "type": "HCF", "school_type": "Unknown", "lat": -13.475105, "lon": 33.38736, "district": "Kasungu", "constituency": "Kasungu South", "ward": "Chiyanjaweni"}, {"name": "St Annies Private clinic - Gogode", "type": "HCF", "school_type": "Unknown", "lat": -12.889509, "lon": 33.556748, "district": "Kasungu", "constituency": "Kasungu Central West", "ward": "Chipala"}, {"name": "Mdunga Health Center", "type": "HCF", "school_type": "Unknown", "lat": -12.993199, "lon": 33.851865, "district": "Kasungu", "constituency": "Kasungu North East", "ward": "Mbongozi"}, {"name": "Nanjiri Private clinic, kamboni trading centre", "type": "HCF", "school_type": "Unknown", "lat": -13.303272, "lon": 33.175599, "district": "Kasungu", "constituency": "Kasungu South West", "ward": "Rusa"}, {"name": "Msamala Private clinic - Linyangwa Trading Centre", "type": "HCF", "school_type": "Unknown", "lat": -13.14157, "lon": 33.299034, "district": "Kasungu", "constituency": "Kasungu West", "ward": "Lifupa"}, {"name": "Machiritso private clinic - Mphomwa trading centre", "type": "HCF", "school_type": "Unknown", "lat": -12.815345, "lon": 33.434534, "district": "Kasungu", "constituency": "Kasungu North West", "ward": "Mpasadzi"}, {"name": "Mulumbenge private clinic - Chiseka trading centre", "type": "HCF", "school_type": "Unknown", "lat": -12.87364, "lon": 33.37207, "district": "Kasungu", "constituency": "Kasungu North West", "ward": "Mpasadzi"}, {"name": "St. Faith Outreach Clinic - Mphomwa Trading Centre", "type": "HCF", "school_type": "Unknown", "lat": -12.814538, "lon": 33.43452, "district": "Kasungu", "constituency": "Kasungu North West", "ward": "Mpasadzi"}, {"name": "Pachalo private clinic", "type": "HCF", "school_type": "Unknown", "lat": -12.643015, "lon": 33.448014, "district": "Kasungu", "constituency": "Kasungu North", "ward": "Milenje"}, {"name": "Yankho private clinic - Chatoloma TC", "type": "HCF", "school_type": "Unknown", "lat": -12.700656, "lon": 33.489927, "district": "Kasungu", "constituency": "Kasungu North", "ward": "Milenje"}, {"name": "Thando private clinic - Santhe", "type": "HCF", "school_type": "Unknown", "lat": -13.443724, "lon": 33.392884, "district": "Kasungu", "constituency": "Kasungu South", "ward": "Chiyanjaweni"}, {"name": "Ungweru private clinic", "type": "HCF", "school_type": "Unknown", "lat": -13.029773, "lon": 33.496227, "district": "Kasungu Municipality", "constituency": "Kasungu Central", "ward": "Katope"}, {"name": "Evergreen private clinic", "type": "HCF", "school_type": "Unknown", "lat": -13.294841, "lon": 33.34142, "district": "Kasungu", "constituency": "Kasungu South West", "ward": "Rusa"}, {"name": "Bethel private clinic", "type": "HCF", "school_type": "Unknown", "lat": -13.25895, "lon": 33.444829, "district": "Kasungu", "constituency": "Kasungu West", "ward": "Lisasadzi"}, {"name": "Chambwe Health Center", "type": "HCF", "school_type": "Unknown", "lat": -13.19449, "lon": 33.656729, "district": "Kasungu", "constituency": "Kasungu South East", "ward": "Bua"}, {"name": "Mziza Mission health centre", "type": "HCF", "school_type": "Unknown", "lat": -13.282852, "lon": 33.50767, "district": "Kasungu", "constituency": "Kasungu West", "ward": "Lisasadzi"}, {"name": "Chilumba private clinic", "type": "HCF", "school_type": "Unknown", "lat": -13.223014, "lon": 33.505114, "district": "Kasungu", "constituency": "Kasungu South East", "ward": "Bua"}, {"name": "Prince Henry private clinic", "type": "HCF", "school_type": "Unknown", "lat": -13.227536, "lon": 33.505493, "district": "Kasungu", "constituency": "Kasungu South East", "ward": "Bua"}, {"name": "PMRC Private Clinic", "type": "HCF", "school_type": "Unknown", "lat": -13.227162, "lon": 33.509176, "district": "Kasungu", "constituency": "Kasungu South East", "ward": "Bua"}, {"name": "Mphatso Zathu Private Clinic", "type": "HCF", "school_type": "Unknown", "lat": -13.067591, "lon": 33.483019, "district": "Kasungu", "constituency": "Kasungu Central West", "ward": "Chipala"}, {"name": "Mwayi Private Clinic", "type": "HCF", "school_type": "Unknown", "lat": -13.435412, "lon": 33.389765, "district": "Kasungu", "constituency": "Kasungu South", "ward": "Chiyanjaweni"}, {"name": "Grace Private Medical Centre", "type": "HCF", "school_type": "Unknown", "lat": -13.440842, "lon": 33.389814, "district": "Kasungu", "constituency": "Kasungu South", "ward": "Chiyanjaweni"}, {"name": "Mwayiwathu private clinic", "type": "HCF", "school_type": "Unknown", "lat": -13.450212, "lon": 33.242415, "district": "Kasungu", "constituency": "Kasungu South", "ward": "Chigodi"}, {"name": "Magawa private clinic", "type": "HCF", "school_type": "Unknown", "lat": -13.452946, "lon": 33.246427, "district": "Kasungu", "constituency": "Kasungu South", "ward": "Chigodi"}, {"name": "yankho private clinic", "type": "HCF", "school_type": "Unknown", "lat": -13.040343, "lon": 33.481073, "district": "Kasungu Municipality", "constituency": "Kasungu Central", "ward": "Kabvunguti"}, {"name": "St Peters Private clinic", "type": "HCF", "school_type": "Unknown", "lat": -13.036048, "lon": 33.481415, "district": "Kasungu Municipality", "constituency": "Kasungu Central", "ward": "Kabvunguti"}, {"name": "Tadala Private clinic", "type": "HCF", "school_type": "Unknown", "lat": -13.077336, "lon": 33.367342, "district": "Kasungu", "constituency": "Kasungu West", "ward": "Lifupa"}, {"name": "good health private clinic", "type": "HCF", "school_type": "Unknown", "lat": -13.065485, "lon": 33.436716, "district": "Kasungu", "constituency": "Kasungu Central West", "ward": "Lingadzi"}, {"name": "Madalitso Private Clinic", "type": "HCF", "school_type": "Unknown", "lat": -13.060677, "lon": 33.472277, "district": "Kasungu Municipality", "constituency": "Kasungu Central", "ward": "Nguluyanawambe"}, {"name": "FPAM", "type": "HCF", "school_type": "Unknown", "lat": -13.039643, "lon": 33.484198, "district": "Kasungu Municipality", "constituency": "Kasungu Central", "ward": "Kabvunguti"}, {"name": "Yankho Dental Clinic", "type": "HCF", "school_type": "Unknown", "lat": -13.037774, "lon": 33.481483, "district": "Kasungu Municipality", "constituency": "Kasungu Central", "ward": "Kabvunguti"}, {"name": "Rudovan Private Clinic", "type": "HCF", "school_type": "Unknown", "lat": -13.037902, "lon": 33.488655, "district": "Kasungu Municipality", "constituency": "Kasungu Central", "ward": "Katope"}, {"name": "Chinguluwe Health Centre", "type": "HCF", "school_type": "Unknown", "lat": -13.261389, "lon": 33.868663, "district": "Ntchisi", "constituency": "Ntchisi North", "ward": "Chipala"}, {"name": "Chinthembwe  Health Centre", "type": "HCF", "school_type": "Unknown", "lat": -13.433309, "lon": 33.975375, "district": "Ntchisi", "constituency": "Ntchisi East", "ward": "Kaliramasamba"}, {"name": "Kamsonga Health Centre", "type": "HCF", "school_type": "Unknown", "lat": -13.274585, "lon": 33.799544, "district": "Ntchisi", "constituency": "Ntchisi West", "ward": "Masangano"}, {"name": "Kangolwa Health centre", "type": "HCF", "school_type": "Unknown", "lat": -13.37034, "lon": 34.07047, "district": "Ntchisi", "constituency": "Ntchisi East", "ward": "Katete -Thumba"}, {"name": "Khuwi Health Centre", "type": "HCF", "school_type": "Unknown", "lat": -13.431696, "lon": 33.833942, "district": "Ntchisi", "constituency": "Ntchisi South", "ward": "Mphunju"}, {"name": "Malambo Health Centre", "type": "HCF", "school_type": "Unknown", "lat": -13.213115, "lon": 33.76244, "district": "Ntchisi", "constituency": "Ntchisi West", "ward": "Malambo"}, {"name": "Mkhuzi Health Centre", "type": "HCF", "school_type": "Unknown", "lat": -13.366559, "lon": 33.776758, "district": "Ntchisi", "constituency": "Ntchisi South", "ward": "Mphunju"}, {"name": "Mndinda Health Centre", "type": "HCF", "school_type": "Unknown", "lat": -13.247381, "lon": 34.056798, "district": "Ntchisi", "constituency": "Ntchisi Central East", "ward": "Mtsiro"}, {"name": "Mzandu Health Centre", "type": "HCF", "school_type": "Unknown", "lat": -13.489233, "lon": 34.027535, "district": "Ntchisi", "constituency": "Ntchisi East", "ward": "Kaliramasamba"}, {"name": "Ntchisi District Hospital", "type": "HCF", "school_type": "Unknown", "lat": -13.363577, "lon": 33.910828, "district": "Ntchisi", "constituency": "Ntchisi South", "ward": "Kawoyi"}, {"name": "Nthondo Health Centre", "type": "HCF", "school_type": "Unknown", "lat": -13.247086, "lon": 34.006476, "district": "Ntchisi", "constituency": "Ntchisi Central East", "ward": "Mtsiro"}, {"name": "SAMBAKUSI", "type": "HCF", "school_type": "Unknown", "lat": -13.349291, "lon": 33.983054, "district": "Ntchisi", "constituency": "Ntchisi Central East", "ward": "Mtsiro"}, {"name": "Chandawe  Dispensary", "type": "HCF", "school_type": "Unknown", "lat": -13.18454, "lon": 33.91826, "district": "Ntchisi", "constituency": "Ntchisi North", "ward": "Chipala"}, {"name": "Malomo health center", "type": "HCF", "school_type": "Unknown", "lat": -13.14852, "lon": 33.839291, "district": "Ntchisi", "constituency": "Ntchisi North", "ward": "Mapasa"}, {"name": "Malindi Dispensary", "type": "HCF", "school_type": "Unknown", "lat": -13.486758, "lon": 34.108815, "district": "Ntchisi", "constituency": "Ntchisi East", "ward": "Kaliramasamba"}, {"name": "Mike Pvt Clinic", "type": "HCF", "school_type": "Unknown", "lat": -13.289421, "lon": 33.994362, "district": "Ntchisi", "constituency": "Ntchisi Central East", "ward": "Mtsiro"}, {"name": "Chinkhande Dispensary", "type": "HCF", "school_type": "Unknown", "lat": -13.507046, "lon": 33.973804, "district": "Ntchisi", "constituency": "Ntchisi East", "ward": "Kaliramasamba"}, {"name": "ST. Paul's Medical Centre", "type": "HCF", "school_type": "Unknown", "lat": -13.149534, "lon": 33.839504, "district": "Ntchisi", "constituency": "Ntchisi North", "ward": "Mapasa"}, {"name": "IS  ABLE PVT CLINIC", "type": "HCF", "school_type": "Unknown", "lat": -13.148638, "lon": 33.838566, "district": "Ntchisi", "constituency": "Ntchisi North", "ward": "Mapasa"}, {"name": "HOHA Medical  and Dental  Health Services", "type": "HCF", "school_type": "Unknown", "lat": -13.355491, "lon": 33.916857, "district": "Ntchisi", "constituency": "Ntchisi Central East", "ward": "Boma"}, {"name": "NTCHISI PRiVATE CLINIC", "type": "HCF", "school_type": "Unknown", "lat": -13.359405, "lon": 33.916993, "district": "Ntchisi", "constituency": "Ntchisi South", "ward": "Kawoyi"}, {"name": "PRINCE PVT CLINIC", "type": "HCF", "school_type": "Unknown", "lat": -13.363106, "lon": 33.914198, "district": "Ntchisi", "constituency": "Ntchisi South", "ward": "Kawoyi"}, {"name": "PEACE PVT CLINIC", "type": "HCF", "school_type": "Unknown", "lat": -13.363102, "lon": 33.90729, "district": "Ntchisi", "constituency": "Ntchisi South", "ward": "Kawoyi"}, {"name": "Mwadimo pvt Clinic", "type": "HCF", "school_type": "Unknown", "lat": -13.368245, "lon": 33.796807, "district": "Ntchisi", "constituency": "Ntchisi South", "ward": "Mphunju"}, {"name": "OVIE pvt CLINIC", "type": "HCF", "school_type": "Unknown", "lat": -13.358744, "lon": 33.916265, "district": "Ntchisi", "constituency": "Ntchisi South", "ward": "Kawoyi"}, {"name": "Chosmo private clinic", "type": "HCF", "school_type": "Unknown", "lat": -13.362579, "lon": 33.918008, "district": "Ntchisi", "constituency": "Ntchisi Central East", "ward": "Boma"}, {"name": "TRIFORNIA pvt CLINIC", "type": "HCF", "school_type": "Unknown", "lat": -13.365753, "lon": 33.869254, "district": "Ntchisi", "constituency": "Ntchisi South", "ward": "Mphunju"}, {"name": "BLM Mponela Clinic", "type": "HCF", "school_type": "Unknown", "lat": -13.53195, "lon": 33.738037, "district": "Dowa", "constituency": "Dowa Central", "ward": "Mpanda West"}, {"name": "Bowe Health Centre", "type": "HCF", "school_type": "Unknown", "lat": -13.278778, "lon": 33.68369, "district": "Dowa", "constituency": "Dowa Ngara", "ward": "Linthembwe"}, {"name": "Chakhaza Health Centre", "type": "HCF", "school_type": "Unknown", "lat": -13.444147, "lon": 33.646933, "district": "Dowa", "constituency": "Dowa Kasangadzi", "ward": "Chakhaza"}, {"name": "Chankhungu Health Centre", "type": "HCF", "school_type": "Unknown", "lat": -13.76483, "lon": 34.014603, "district": "Dowa", "constituency": "Dowa Lumbadzi", "ward": "Lumbadzi East"}, {"name": "Chinkhwiri Health Centre", "type": "HCF", "school_type": "Unknown", "lat": -13.385599, "lon": 33.721044, "district": "Dowa", "constituency": "Dowa Kasangadzi", "ward": "Chakhaza"}, {"name": "Chisepo Health Centre", "type": "HCF", "school_type": "Unknown", "lat": -13.634906, "lon": 33.469981, "district": "Dowa", "constituency": "Dowa West", "ward": "Machenga"}, {"name": "Mauni Cbcc", "type": "CBCC", "school_type": "Unknown", "lat": -15.8694520246976, "lon": 35.39958752564, "district": "Mulanje", "constituency": "Mulanje Pasani", "ward": "Chambe"}, {"name": "Mboga Cbcc", "type": "CBCC", "school_type": "Unknown", "lat": -15.9362787617498, "lon": 35.4577247376002, "district": "Mulanje", "constituency": "Mulanje Pasani", "ward": "Chole"}, {"name": "Mchiwa Cbcc", "type": "CBCC", "school_type": "Unknown", "lat": -15.7818164162316, "lon": 35.4807995211788, "district": "Mulanje", "constituency": "Mulanje North", "ward": "Mulomba Dziwe"}, {"name": "Mkunguza Cbcc", "type": "CBCC", "school_type": "Unknown", "lat": -15.9318746883417, "lon": 35.4684261652395, "district": "Mulanje", "constituency": "Mulanje Pasani", "ward": "Chole"}, {"name": "Mkwaira Cbcc", "type": "CBCC", "school_type": "Unknown", "lat": -15.9097849904101, "lon": 35.3949406115363, "district": "Mulanje", "constituency": "Mulanje Pasani", "ward": "Chambe"}, {"name": "Mphaya Cbcc", "type": "CBCC", "school_type": "Unknown", "lat": -15.8804973960045, "lon": 35.4987301700562, "district": "Mulanje", "constituency": "Mulanje Pasani", "ward": "Chambe"}, {"name": "Mpombwe Cbcc", "type": "CBCC", "school_type": "Unknown", "lat": -15.9060074274013, "lon": 35.3828254087666, "district": "Mulanje", "constituency": "Mulanje Pasani", "ward": "Chambe"}, {"name": "Muriya Cbcc", "type": "CBCC", "school_type": "Unknown", "lat": -15.9235505733654, "lon": 35.471181076556, "district": "Mulanje", "constituency": "Mulanje Pasani", "ward": "Chole"}, {"name": "Mwaiwathu Cbcc", "type": "CBCC", "school_type": "Unknown", "lat": -15.8560895980786, "lon": 35.507341582586, "district": "Mulanje", "constituency": "Mulanje Pasani", "ward": "Chambe"}, {"name": "Mwalankhang", "type": "CBCC", "school_type": "Unknown", "lat": -15.9628505366283, "lon": 35.4801503024441, "district": "Mulanje", "constituency": "Mulanje Pasani", "ward": "Chole"}, {"name": "Mwananyama Cbc", "type": "CBCC", "school_type": "Unknown", "lat": -15.7482385531196, "lon": 35.4657659292669, "district": "Mulanje", "constituency": "Mulanje North", "ward": "Mulomba Dziwe"},